{"version": 0.6, "generator": "Overpass API 0.7.62.10 2d4cfc48", "osm3s": {"timestamp_osm_base": "2026-03-09T22:43:30Z", "copyright": "The data included in this document is from www.openstreetmap.org. The data is made available under ODbL."}, "elements": [{"type": "node", "id": 61360511, "lat": 42.2948957, "lon": -71.0616625, "tags": {"bus": "yes", "departures_board": "no", "highway": "bus_stop", "name": "Dorchester Ave @ Dix St", "network": "MBTA", "network:wikidata": "Q171985", "network:wikipedia": "en:Massachusetts Bay Transportation Authority", "operator": "MBTA", "public_transport": "platform", "ref": "341", "shelter": "no"}}, {"type": "node", "id": 61492730, "lat": 42.2882142, "lon": -71.0710461, "tags": {"bus": "yes", "departures_board": "no", "highway": "bus_stop", "name": "Washington St @ Welles Ave", "network": "MBTA", "network:short": "MBTA", "network:wikidata": "Q171985", "network:wikipedia": "en:Massachusetts Bay Transportation Authority", "operator": "MBTA", "operator:short": "MBTA", "public_transport": "platform", "ref": "437", "shelter": "no"}}, {"type": "node", "id": 61516794, "lat": 42.2803709, "lon": -71.0822478, "tags": {"bus": "yes", "departures_board": "no", "highway": "bus_stop", "name": "Morton St @ Selden St", "network": "MBTA", "network:wikidata": "Q171985", "network:wikipedia": "en:Massachusetts Bay Transportation Authority", "operator": "MBTA", "public_transport": "platform", "ref": "540", "shelter": "no"}}, {"type": "node", "id": 61574392, "lat": 42.299079, "lon": -71.063753, "tags": {"bus": "yes", "departures_board": "no", "highway": "bus_stop", "name": "Fields Corner Sta @ Geneva Ave", "network": "MBTA", "network:wikidata": "Q171985", "network:wikipedia": "en:Massachusetts Bay Transportation Authority", "operator": "MBTA", "public_transport": "platform", "ref": "55600", "shelter": "yes"}}, {"type": "node", "id": 69479726, "lat": 42.3488466, "lon": -71.1343789, "tags": {"light_rail": "yes", "name": "Griggs Street", "network": "MBTA", "operator": "Massachusetts Bay Transportation Authority", "operator:short": "MBTA", "operator:wikidata": "Q171985", "public_transport": "station", "railway": "halt", "station": "light_rail", "wikidata": "Q5608979"}}, {"type": "node", "id": 69479884, "lat": 42.3501453, "lon": -71.1075948, "tags": {"gtfs:stop_id": "70145", "light_rail": "yes", "name": "Boston University Central", "network": "MBTA", "operator": "Massachusetts Bay Transportation Authority", "operator:short": "MBTA", "operator:wikidata": "Q171985", "public_transport": "stop_position", "railway": "stop", "ref": "70145"}}, {"type": "node", "id": 69480814, "lat": 42.3566332, "lon": -71.0591696, "tags": {"name": "State", "network": "MBTA", "operator": "Massachusetts Bay Transportation Authority", "operator:short": "MBTA", "operator:wikidata": "Q171985", "public_transport": "stop_position", "railway": "stop", "subway": "yes"}}, {"type": "node", "id": 69480850, "lat": 42.3516173, "lon": -71.1255234, "tags": {"light_rail": "yes", "name": "Packards Corner", "network": "MBTA", "operator": "Massachusetts Bay Transportation Authority", "operator:short": "MBTA", "operator:wikidata": "Q171985", "public_transport": "stop_position", "railway": "stop", "ref": "70135"}}, {"type": "node", "id": 69481065, "lat": 42.3300185, "lon": -71.0571623, "tags": {"name": "Andrew", "network": "MBTA", "network:wikidata": "Q171985", "operator": "Massachusetts Bay Transportation Authority", "operator:short": "MBTA", "operator:wikidata": "Q171985", "public_transport": "station", "railway": "station", "station": "subway", "subway": "yes", "train": "yes", "wheelchair": "yes", "wikidata": "Q4756160"}}, {"type": "node", "id": 69481274, "lat": 42.2723805, "lon": -71.062657, "tags": {"attribution": "massDOT", "light_rail": "yes", "massgis:geom_id": "24", "name": "Butler", "network": "MBTA", "operator": "Massachusetts Bay Transportation Authority", "operator:short": "MBTA", "operator:wikidata": "Q171985", "public_transport": "stop_position", "railway": "stop", "ref": "70265", "source": "massdot_import_081211"}}, {"type": "node", "id": 69481286, "lat": 42.3362559, "lon": -71.0992559, "tags": {"light_rail": "yes", "name": "Longwood Medical Area", "network": "MBTA", "operator": "Massachusetts Bay Transportation Authority", "operator:short": "MBTA", "operator:wikidata": "Q171985", "public_transport": "stop_position", "railway": "stop"}}, {"type": "node", "id": 69481493, "lat": 42.3316217, "lon": -71.1119274, "tags": {"light_rail": "yes", "name": "Riverway", "network": "MBTA", "operator": "Massachusetts Bay Transportation Authority", "operator:short": "MBTA", "operator:wikidata": "Q171985", "public_transport": "station", "railway": "halt", "station": "light_rail", "wheelchair": "no", "wikidata": "Q7338796"}}, {"type": "node", "id": 69481739, "lat": 42.3480379, "lon": -71.0876524, "tags": {"access": "yes", "addr:city": "Boston", "addr:housenumber": "360", "addr:postcode": "02115", "addr:state": "MA", "addr:street": "Newbury Street", "air_conditioning": "no", "baby_feeding": "no", "bicycle": "no", "emergency_telephone_code": "+1-617-222-1212", "level": "-1;-2", "light_rail": "yes", "lit": "yes", "name": "Hynes Convention Center", "network": "MBTA", "network:wikidata": "Q171985", "operator": "Massachusetts Bay Transportation Authority", "operator:short": "MBTA", "operator:wikidata": "Q171985", "parking": "no", "public_transport": "station", "railway": "station", "start_date": "1914-10-03", "station": "light_rail", "supervised": "yes", "tracks": "2", "train": "yes", "website": "https://www.mbta.com/stops/place-hymnl", "wheelchair": "no", "wikidata": "Q11221237", "wikipedia": "en:Hynes Convention Center station"}}, {"type": "node", "id": 69481819, "lat": 42.3346084, "lon": -71.1036922, "tags": {"light_rail": "yes", "name": "Brigham Circle", "network": "MBTA", "operator": "Massachusetts Bay Transportation Authority", "operator:short": "MBTA", "operator:wikidata": "Q171985", "public_transport": "station", "railway": "halt", "station": "light_rail", "wikidata": "Q4967294"}}, {"type": "node", "id": 69481842, "lat": 42.320893, "lon": -71.0522582, "tags": {"gtfs:stop_id": "70096", "name": "JFK/UMass", "network": "MBTA", "network:guid": "US-MA-MBTA", "network:short": "MBTA", "network:wikidata": "Q171985", "network:wikipedia": "en:Massachusetts Bay Transportation Authority", "operator": "Massachusetts Bay Transportation Authority", "operator:short": "MBTA", "operator:wikidata": "Q171985", "public_transport": "stop_position", "railway": "stop", "ref": "70096", "subway": "yes"}}, {"type": "node", "id": 69481901, "lat": 42.3498036, "lon": -71.1047423, "tags": {"light_rail": "yes", "name": "Boston University East", "network": "MBTA", "operator": "Massachusetts Bay Transportation Authority", "operator:short": "MBTA", "operator:wikidata": "Q171985", "public_transport": "stop_position", "railway": "stop", "ref": "70147"}}, {"type": "node", "id": 69482091, "lat": 42.2839548, "lon": -71.0634234, "tags": {"gtfs:stop_id": "70094", "name": "Ashmont/Peabody Square", "network": "MBTA", "network:guid": "US-MA-MBTA", "network:short": "MBTA", "network:wikidata": "Q171985", "network:wikipedia": "en:Massachusetts Bay Transportation Authority", "operator": "Massachusetts Bay Transportation Authority", "operator:short": "MBTA", "operator:wikidata": "Q171985", "public_transport": "stop_position", "railway": "stop", "ref": "70094", "subway": "yes"}}, {"type": "node", "id": 69482188, "lat": 42.3599037, "lon": -71.0600057, "tags": {"gtfs:stop_id": "70040", "name": "Government Center", "network": "MBTA", "network:guid": "US-MA-MBTA", "network:short": "MBTA", "network:wikidata": "Q171985", "network:wikipedia": "en:Massachusetts Bay Transportation Authority", "operator": "Massachusetts Bay Transportation Authority", "operator:short": "MBTA", "operator:wikidata": "Q171985", "public_transport": "stop_position", "railway": "stop", "ref": "70040", "subway": "yes"}}, {"type": "node", "id": 69482495, "lat": 42.3207836, "lon": -71.0524444, "tags": {"gtfs:stop_id": "70086", "name": "JFK/UMass", "network": "MBTA", "network:guid": "US-MA-MBTA", "network:short": "MBTA", "network:wikidata": "Q171985", "network:wikipedia": "en:Massachusetts Bay Transportation Authority", "operator": "Massachusetts Bay Transportation Authority", "operator:short": "MBTA", "operator:wikidata": "Q171985", "public_transport": "stop_position", "railway": "stop", "ref": "70086", "subway": "yes"}}, {"type": "node", "id": 69482993, "lat": 42.3527443, "lon": -71.0553933, "tags": {"addr:city": "Boston", "addr:postcode": "02110", "addr:state": "MA", "gtfs:stop_id": "70080", "name": "South Station", "network": "MBTA", "network:guid": "US-MA-MBTA", "network:short": "MBTA", "network:wikidata": "Q171985", "network:wikipedia": "en:Massachusetts Bay Transportation Authority", "operator": "Massachusetts Bay Transportation Authority", "operator:short": "MBTA", "operator:wikidata": "Q171985", "public_transport": "stop_position", "railway": "stop", "ref": "70080", "subway": "yes", "website": "https://www.mbta.com/", "wikidata": "Q7568548"}}, {"type": "node", "id": 69483118, "lat": 42.2931284, "lon": -71.065779, "tags": {"name": "Shawmut", "network": "MBTA", "operator": "Massachusetts Bay Transportation Authority", "operator:short": "MBTA", "operator:wikidata": "Q171985", "public_transport": "stop_position", "railway": "stop", "subway": "yes"}}, {"type": "node", "id": 69483206, "lat": 42.3510052, "lon": -71.1147244, "tags": {"check_date": "2022-10-24", "light_rail": "yes", "name": "Amory Street - Boston College", "network": "MBTA", "opening_date": "2021-11-15", "operator": "Massachusetts Bay Transportation Authority", "operator:short": "MBTA", "operator:wikidata": "Q171985", "public_transport": "stop_position", "railway": "stop", "ref": "170141"}}, {"type": "node", "id": 69483500, "lat": 42.3406469, "lon": -71.1509237, "tags": {"light_rail": "yes", "name": "Chiswick Road", "network": "MBTA", "operator": "Massachusetts Bay Transportation Authority", "operator:short": "MBTA", "operator:wikidata": "Q171985", "public_transport": "station", "railway": "halt", "station": "light_rail", "wikidata": "Q5102171"}}, {"type": "node", "id": 69483568, "lat": 42.3336254, "lon": -71.1059084, "tags": {"light_rail": "yes", "name": "Fenwood Road", "network": "MBTA", "operator": "Massachusetts Bay Transportation Authority", "operator:short": "MBTA", "operator:wikidata": "Q171985", "public_transport": "station", "railway": "halt", "station": "light_rail", "wikidata": "Q5396766"}}, {"type": "node", "id": 69483940, "lat": 42.3486046, "lon": -71.1376139, "tags": {"internet_access": "no", "light_rail": "yes", "name": "Allston Street", "network": "MBTA", "operator": "Massachusetts Bay Transportation Authority", "operator:short": "MBTA", "operator:wikidata": "Q171985", "public_transport": "station", "railway": "halt", "station": "light_rail", "wikidata": "Q2880257"}}, {"type": "node", "id": 69485017, "lat": 42.3440492, "lon": -71.1426244, "tags": {"light_rail": "yes", "name": "Washington Street", "network": "MBTA", "operator": "Massachusetts Bay Transportation Authority", "operator:short": "MBTA", "operator:wikidata": "Q171985", "public_transport": "station", "railway": "halt", "station": "light_rail", "wikidata": "Q7972315"}}, {"type": "node", "id": 69485329, "lat": 42.2795195, "lon": -71.060343, "tags": {"light_rail": "yes", "name": "Cedar Grove", "network": "MBTA", "operator": "Massachusetts Bay Transportation Authority", "operator:short": "MBTA", "operator:wikidata": "Q171985", "public_transport": "stop_position", "railway": "stop"}}, {"type": "node", "id": 69486291, "lat": 42.3008723, "lon": -71.1140354, "tags": {"name": "Forest Hills", "network": "MBTA", "network:guid": "US-MA-MBTA", "network:short": "MBTA", "network:wikidata": "Q171985", "network:wikipedia": "en:Massachusetts Bay Transportation Authority", "operator": "Massachusetts Bay Transportation Authority", "operator:short": "MBTA", "operator:wikidata": "Q171985", "public_transport": "station", "railway": "station", "station": "subway", "subway": "yes", "toilets": "yes", "toilets:access": "customers", "train": "yes", "wheelchair": "yes", "wikidata": "Q2947194"}}, {"type": "node", "id": 69486661, "lat": 42.3401702, "lon": -71.167045, "tags": {"gtfs:stop_id": "70107", "light_rail": "yes", "name": "Boston College", "network": "MBTA", "network:wikidata": "Q171985", "network:wikipedia": "en:Massachusetts Bay Transportation Authority", "operator": "Massachusetts Bay Transportation Authority", "operator:short": "MBTA", "operator:wikidata": "Q171985", "public_transport": "stop_position", "railway": "stop", "ref": "70107"}}, {"type": "node", "id": 69487423, "lat": 42.3740156, "lon": -71.0706946, "tags": {"name": "Community College", "network": "MBTA", "network:guid": "US-MA-MBTA", "network:short": "MBTA", "network:wikidata": "Q171985", "network:wikipedia": "en:Massachusetts Bay Transportation Authority", "operator": "Massachusetts Bay Transportation Authority", "operator:short": "MBTA", "operator:wikidata": "Q171985", "public_transport": "station", "railway": "station", "station": "subway", "subway": "yes", "train": "yes", "wheelchair": "yes", "wikidata": "Q3562508", "wikimedia_commons": "Category:Community College station", "wikipedia": "en:Community College station"}}, {"type": "node", "id": 69488032, "lat": 42.3516323, "lon": -71.119929, "tags": {"light_rail": "yes", "name": "Babcock Street", "network": "MBTA", "operator": "Massachusetts Bay Transportation Authority", "operator:short": "MBTA", "operator:wikidata": "Q171985", "public_transport": "stop_position", "railway": "stop", "ref": "170137"}}, {"type": "node", "id": 69488191, "lat": 42.3611939, "lon": -71.0713371, "tags": {"gtfs:stop_id": "70073", "name": "Charles/MGH", "network": "MBTA", "network:guid": "US-MA-MBTA", "network:short": "MBTA", "network:wikidata": "Q171985", "network:wikipedia": "en:Massachusetts Bay Transportation Authority", "operator": "Massachusetts Bay Transportation Authority", "operator:short": "MBTA", "operator:wikidata": "Q171985", "public_transport": "stop_position", "railway": "stop", "ref": "70073", "subway": "yes", "url": "http://www.mbta.com/schedules_and_maps/subway/lines/stations/?stopId=11048", "wheelchair": "yes", "wikidata": "Q584412"}}, {"type": "node", "id": 69488839, "lat": 42.3567898, "lon": -71.0632723, "tags": {"gtfs:stop_id": "70076", "name": "Park Street", "network": "MBTA", "network:guid": "US-MA-MBTA", "network:short": "MBTA", "network:wikidata": "Q171985", "network:wikipedia": "en:Massachusetts Bay Transportation Authority", "operator": "Massachusetts Bay Transportation Authority", "operator:short": "MBTA", "operator:wikidata": "Q171985", "public_transport": "stop_position", "railway": "stop", "ref": "70076", "subway": "yes", "url": "http://www.mbta.com/schedules_and_maps/subway/lines/stations/?stopId=13771"}}, {"type": "node", "id": 69489103, "lat": 42.2675657, "lon": -71.0924273, "tags": {"addr:city": "Boston", "addr:housenumber": "500", "addr:postcode": "02126", "addr:state": "MA", "addr:street": "River Street", "bus": "yes", "light_rail": "yes", "name": "Mattapan", "network": "MBTA", "network:wikidata": "Q171985", "operator": "Massachusetts Bay Transportation Authority", "operator:short": "MBTA", "operator:wikidata": "Q171985", "public_transport": "station", "railway": "station", "station": "light_rail", "train": "yes", "wikidata": "Q2889476"}}, {"type": "node", "id": 69489300, "lat": 42.3486367, "lon": -71.1402269, "tags": {"light_rail": "yes", "name": "Warren Street", "network": "MBTA", "operator": "Massachusetts Bay Transportation Authority", "operator:short": "MBTA", "operator:wikidata": "Q171985", "public_transport": "station", "railway": "halt", "station": "light_rail", "wikidata": "Q5843108"}}, {"type": "node", "id": 69489378, "lat": 42.3517313, "lon": -71.0712808, "tags": {"level": "-2", "light_rail": "yes", "name": "Arlington", "network": "MBTA", "network:guid": "US-MA-MBTA", "network:short": "MBTA", "network:wikidata": "Q171985", "network:wikipedia": "en:Massachusetts Bay Transportation Authority", "operator": "Massachusetts Bay Transportation Authority", "operator:short": "MBTA", "operator:wikidata": "Q171985", "public_transport": "station", "railway": "station", "station": "light_rail", "train": "yes", "wheelchair": "yes", "wikidata": "Q4792268"}}, {"type": "node", "id": 69489609, "lat": 42.3504313, "lon": -71.1310251, "tags": {"light_rail": "yes", "name": "Harvard Avenue", "network": "MBTA", "operator": "Massachusetts Bay Transportation Authority", "operator:short": "MBTA", "operator:wikidata": "Q171985", "public_transport": "station", "railway": "halt", "station": "light_rail", "wikidata": "Q5676284"}}, {"type": "node", "id": 69489847, "lat": 42.3492264, "lon": -71.1000939, "tags": {"light_rail": "yes", "name": "Blandford Street", "network": "MBTA", "network:guid": "US-MA-MBTA", "network:short": "MBTA", "network:wikidata": "Q171985", "network:wikipedia": "en:Massachusetts Bay Transportation Authority", "operator": "Massachusetts Bay Transportation Authority", "operator:short": "MBTA", "operator:wikidata": "Q171985", "public_transport": "station", "railway": "halt", "station": "light_rail", "wikidata": "Q4925022"}}, {"type": "node", "id": 69489948, "lat": 42.3001325, "lon": -71.0612761, "tags": {"gtfs:stop_id": "70090", "name": "Fields Corner", "network": "MBTA", "network:wikidata": "Q171985", "operator": "Massachusetts Bay Transportation Authority", "operator:short": "MBTA", "operator:wikidata": "Q171985", "public_transport": "stop_position", "railway": "stop", "ref": "70090", "subway": "yes"}}, {"type": "node", "id": 69490284, "lat": 42.3651603, "lon": -71.0603533, "tags": {"gtfs:stop_id": "70206", "light_rail": "yes", "name": "North Station", "network": "MBTA", "operator": "Massachusetts Bay Transportation Authority", "operator:short": "MBTA", "operator:wikidata": "Q171985", "public_transport": "stop_position", "railway": "stop", "ref": "70206", "wheelchair": "yes"}}, {"type": "node", "id": 69490293, "lat": 42.3225898, "lon": -71.1001984, "tags": {"name": "Jackson Square", "network": "MBTA", "network:guid": "US-MA-MBTA", "network:short": "MBTA", "network:wikidata": "Q171985", "network:wikipedia": "en:Massachusetts Bay Transportation Authority", "operator": "Massachusetts Bay Transportation Authority", "operator:short": "MBTA", "operator:wikidata": "Q171985", "public_transport": "stop_position", "railway": "stop", "subway": "yes", "wheelchair": "yes"}}, {"type": "node", "id": 69490789, "lat": 42.3909672, "lon": -70.9967468, "tags": {"name": "Suffolk Downs", "network": "MBTA", "network:guid": "US-MA-MBTA", "network:short": "MBTA", "network:wikidata": "Q171985", "network:wikipedia": "en:Massachusetts Bay Transportation Authority", "operator": "Massachusetts Bay Transportation Authority", "operator:short": "MBTA", "operator:wikidata": "Q171985", "public_transport": "stop_position", "railway": "stop", "subway": "yes"}}, {"type": "node", "id": 69490954, "lat": 42.3518022, "lon": -71.0627202, "tags": {"name": "Chinatown", "network": "MBTA", "network:wikidata": "Q171985", "network:wikipedia": "en:Massachusetts Bay Transportation Authority", "operator": "Massachusetts Bay Transportation Authority", "operator:short": "MBTA", "operator:wikidata": "Q171985", "public_transport": "stop_position", "railway": "stop", "subway": "yes"}}, {"type": "node", "id": 69491381, "lat": 42.3172166, "lon": -71.1042505, "tags": {"name": "Stony Brook", "network": "MBTA", "network:guid": "US-MA-MBTA", "network:short": "MBTA", "network:wikidata": "Q171985", "network:wikipedia": "en:Massachusetts Bay Transportation Authority", "operator": "Massachusetts Bay Transportation Authority", "operator:short": "MBTA", "operator:wikidata": "Q171985", "public_transport": "stop_position", "railway": "stop", "subway": "yes"}}, {"type": "node", "id": 69491687, "lat": 42.3294217, "lon": -71.1109973, "tags": {"light_rail": "yes", "name": "Back of the Hill", "network": "MBTA", "operator": "Massachusetts Bay Transportation Authority", "operator:short": "MBTA", "operator:wikidata": "Q171985", "public_transport": "station", "railway": "halt", "station": "light_rail", "wikidata": "Q4839332"}}, {"type": "node", "id": 69491775, "lat": 42.341582, "lon": -71.1462998, "tags": {"light_rail": "yes", "name": "Sutherland Road", "network": "MBTA", "operator": "Massachusetts Bay Transportation Authority", "operator:short": "MBTA", "operator:wikidata": "Q171985", "public_transport": "station", "railway": "halt", "station": "light_rail", "wikidata": "Q7649999"}}, {"type": "node", "id": 69492475, "lat": 42.3394813, "lon": -71.1572454, "tags": {"light_rail": "yes", "name": "South Street", "network": "MBTA", "operator": "Massachusetts Bay Transportation Authority", "operator:short": "MBTA", "operator:wikidata": "Q171985", "public_transport": "stop_position", "railway": "stop", "ref": "70110"}}, {"type": "node", "id": 69492689, "lat": 42.337905, "lon": -71.0950117, "tags": {"light_rail": "yes", "name": "Museum of Fine Arts", "network": "MBTA", "operator": "Massachusetts Bay Transportation Authority", "operator:short": "MBTA", "operator:wikidata": "Q171985", "public_transport": "stop_position", "railway": "stop"}}, {"type": "node", "id": 69493115, "lat": 42.3427676, "lon": -71.0849488, "tags": {"access": "yes", "addr:city": "Boston", "addr:postcode": "02115", "addr:state": "MA", "addr:street": "Huntington Avenue", "air_conditioning": "no", "baby_feeding": "no", "bicycle": "no", "bicycle_parking": "no", "contact:twitter": "https://twitter.com/MBTA", "covered": "yes", "fee": "yes", "foot": "designated", "internet_access": "no", "level": "-1", "light_rail": "yes", "lit": "yes", "location": "underground", "motor_vehicle": "no", "name": "Symphony", "network": "MBTA", "network:wikidata": "Q171985", "operator": "Massachusetts Bay Transportation Authority", "operator:short": "MBTA", "operator:wikidata": "Q171985", "parking": "no", "phone": "+1-617-222-3200", "public_transport": "station", "railway": "station", "start_date": "1941-02-16", "station": "light_rail", "subway": "station", "supervised": "yes", "tracks": "2", "train": "yes", "website": "https://www.mbta.com/stops/place-symcl", "wheelchair": "no", "wikidata": "Q5549774", "wikipedia": "en:Symphony station"}}, {"type": "node", "id": 69493310, "lat": 42.3103516, "lon": -71.1075902, "tags": {"gtfs:stop_id": "70003", "name": "Green Street", "network": "MBTA", "network:guid": "US-MA-MBTA", "network:short": "MBTA", "network:wikidata": "Q171985", "network:wikipedia": "en:Massachusetts Bay Transportation Authority", "operator": "Massachusetts Bay Transportation Authority", "operator:short": "MBTA", "operator:wikidata": "Q171985", "public_transport": "stop_position", "railway": "stop", "ref": "70003", "subway": "yes"}}, {"type": "node", "id": 69493810, "lat": 42.3534194, "lon": -71.06443, "tags": {"access": "yes", "bicycle": "no", "covered": "yes", "description": "Outbound stopping location", "foot": "yes", "indoor": "yes", "light_rail": "yes", "lit": "yes", "location": "underground", "motor_vehicle": "no", "name": "Boylston", "network": "MBTA", "network:guid": "US-MA-MBTA", "network:short": "MBTA", "network:wikidata": "Q171985", "network:wikipedia": "en:Massachusetts Bay Transportation Authority", "operator": "Massachusetts Bay Transportation Authority", "operator:short": "MBTA", "operator:wikidata": "Q171985", "public_transport": "stop_position", "railway": "stop", "ref": "70159", "wheelchair": "limited", "wikidata": "Q4846632", "wikipedia": "en:Boylston station"}}, {"type": "node", "id": 69493892, "lat": 42.3402427, "lon": -71.0891879, "tags": {"light_rail": "yes", "name": "Northeastern", "network": "MBTA", "operator": "Massachusetts Bay Transportation Authority", "operator:short": "MBTA", "operator:wikidata": "Q171985", "public_transport": "stop_position", "railway": "stop"}}, {"type": "node", "id": 69494687, "lat": 42.3425292, "lon": -71.057125, "tags": {"name": "Broadway", "network": "MBTA", "network:wikidata": "Q171985", "operator": "Massachusetts Bay Transportation Authority", "operator:short": "MBTA", "operator:wikidata": "Q171985", "public_transport": "station", "railway": "station", "station": "subway", "subway": "yes", "train": "yes", "wikidata": "Q4972390"}}, {"type": "node", "id": 69495531, "lat": 42.3456782, "lon": -71.0813915, "tags": {"addr:city": "Boston", "addr:postcode": "02199", "addr:state": "MA", "addr:street": "Huntington Avenue", "air_conditioning": "no", "attribution": "Office of Geographic and Environmental Information (MassGIS)", "bicycle": "no", "covered": "yes", "foot": "designated", "indoor": "yes", "internet_access": "no", "level": "0;-1;-2", "light_rail": "yes", "lit": "yes", "location": "underground", "name": "Prudential", "network": "MBTA", "operator": "Massachusetts Bay Transportation Authority", "operator:short": "MBTA", "operator:wikidata": "Q171985", "public_transport": "station", "railway": "halt", "start_date": "1941-02-16", "station": "light_rail", "stroller": "yes", "supervised": "yes", "website": "https://www.mbta.com/stops/place-prmnl", "wheelchair": "yes", "wikidata": "Q7252977", "wikipedia": "en:Prudential station"}}, {"type": "node", "id": 69495717, "lat": 42.338352, "lon": -71.1528837, "tags": {"light_rail": "yes", "name": "Chestnut Hill Avenue", "network": "MBTA", "operator": "Massachusetts Bay Transportation Authority", "operator:short": "MBTA", "operator:wikidata": "Q171985", "public_transport": "station", "railway": "halt", "station": "light_rail", "wikidata": "Q5093944"}}, {"type": "node", "id": 69496696, "lat": 42.3407975, "lon": -71.0844022, "tags": {"name": "Massachusetts Avenue", "network": "MBTA", "network:guid": "US-MA-MBTA", "network:short": "MBTA", "network:wikidata": "Q171985", "network:wikipedia": "en:Massachusetts Bay Transportation Authority", "operator": "Massachusetts Bay Transportation Authority", "operator:short": "MBTA", "operator:wikidata": "Q171985", "public_transport": "stop_position", "railway": "stop", "subway": "yes"}}, {"type": "node", "id": 69496958, "lat": 42.3489438, "lon": -71.0952999, "tags": {"level": "-2", "light_rail": "yes", "name": "Kenmore", "network": "MBTA", "network:wikidata": "Q171985", "operator": "Massachusetts Bay Transportation Authority", "operator:short": "MBTA", "operator:wikidata": "Q171985", "public_transport": "station", "railway": "station", "station": "light_rail", "train": "yes", "wikidata": "Q6389462"}}, {"type": "node", "id": 69504140, "lat": 42.3352113, "lon": -71.0785139, "tags": {"alt_name": "Washington St @ Lenox St", "attribution": "massDOT", "bus": "yes", "highway": "bus_stop", "line": "Silver", "massgis:geom_id": "123", "name": "Lenox Street", "network": "MBTA", "network:wikidata": "Q171985", "network:wikipedia": "en:Massachusetts Bay Transportation Authority", "operator": "MBTA", "public_transport": "platform", "ref": "4", "shelter": "yes", "source": "massdot_import_081211"}}, {"type": "node", "id": 69504191, "lat": 42.3743325, "lon": -71.0302794, "tags": {"access": "yes", "addr:city": "Boston", "addr:postcode": "02128", "addr:state": "MA", "addr:street": "Transportation Way", "air_conditioning": "no", "architect": "[architect]", "bicycle": "yes", "bicycle_parking": "no", "blind": "yes", "colour": "blue", "covered": "yes", "elevator": "yes", "emergency_telephone_code": "+1-617-222-1212", "fee": "yes", "foot": "yes", "indoor": "yes", "internet_access": "no", "level": "0;1", "lit": "yes", "location": "indoor", "name": "Airport", "network": "MBTA", "network:wikidata": "Q171985", "old_name": "[old_name]", "opening_hours": "Mo-Su 04:55-24:00", "operator": "Massachusetts Bay Transportation Authority", "operator:short": "MBTA", "operator:type": "government", "operator:wikidata": "Q171985", "parking": "no", "phone": "+1-617-222-3200", "platforms": "2", "public_transport": "station", "railway": "station", "smoking": "no", "start_date": "1952-01-05", "station": "subway", "subway": "yes", "supervised": "yes", "surface": "concrete", "tracks": "2", "train": "yes", "website": "https://www.mbta.com/stops/subway", "wheelchair": "yes", "wikidata": "Q4241859", "wikipedia": "en:Airport station (MBTA)"}}, {"type": "node", "id": 69504209, "lat": 42.3363035, "lon": -71.0773538, "tags": {"alt_name": "Washington St @ Massachusetts Ave", "attribution": "massDOT", "bench": "yes", "bin": "yes", "bus": "yes", "highway": "bus_stop", "line": "Silver", "lit": "yes", "massgis:geom_id": "124", "name": "Massachusetts Ave", "network": "MBTA", "network:wikidata": "Q171985", "network:wikipedia": "en:Massachusetts Bay Transportation Authority", "operator": "MBTA", "public_transport": "platform", "ref": "55", "shelter": "yes", "source": "massdot_import_081211", "tactile_paving": "no"}}, {"type": "node", "id": 69504253, "lat": 42.3453702, "lon": -71.1042405, "tags": {"light_rail": "yes", "name": "Fenway", "network": "MBTA", "operator": "Massachusetts Bay Transportation Authority", "operator:short": "MBTA", "operator:wikidata": "Q171985", "public_transport": "stop_position", "railway": "stop", "ref": "70186"}}, {"type": "node", "id": 69504282, "lat": 42.3445854, "lon": -71.034698, "tags": {"attribution": "massDOT", "bus": "yes", "highway": "bus_stop", "line": "Silver", "massgis:geom_id": "122", "name": "Drydock Ave @ Design Center Place", "network": "MBTA", "network:wikidata": "Q171985", "network:wikipedia": "en:Massachusetts Bay Transportation Authority", "operator": "MBTA", "public_transport": "platform", "ref": "31255", "source": "massdot_import_081211"}}, {"type": "node", "id": 69504313, "lat": 42.344696, "lon": -71.0304114, "tags": {"attribution": "massDOT", "bus": "yes", "highway": "bus_stop", "line": "Silver", "massgis:geom_id": "146", "name": "23 Dry Dock Ave", "network": "MBTA", "network:wikidata": "Q171985", "network:wikipedia": "en:Massachusetts Bay Transportation Authority", "operator": "MBTA", "public_transport": "platform", "ref": "30250", "shelter": "yes", "source": "massdot_import_081211", "wikidata": "Q5651649"}}, {"type": "node", "id": 69504367, "lat": 42.3868747, "lon": -71.0047749, "tags": {"name": "Orient Heights", "network": "MBTA", "network:guid": "US-MA-MBTA", "network:short": "MBTA", "network:wikidata": "Q171985", "network:wikipedia": "en:Massachusetts Bay Transportation Authority", "operator": "Massachusetts Bay Transportation Authority", "operator:short": "MBTA", "operator:wikidata": "Q171985", "public_transport": "station", "railway": "station", "station": "subway", "subway": "yes", "train": "yes", "wheelchair": "yes", "wikidata": "Q4163495"}}, {"type": "node", "id": 69504374, "lat": 42.3523933, "lon": -71.0468778, "tags": {"attribution": "massDOT", "bus": "yes", "gtfs:stop_id": "74612", "highway": "bus_stop", "line": "Silver", "massgis:geom_id": "140", "name": "Courthouse", "network": "MBTA", "network:wikidata": "Q171985", "network:wikipedia": "en:Massachusetts Bay Transportation Authority", "operator": "MBTA", "public_transport": "platform", "ref": "74612", "source": "massdot_import_081211", "wheelchair": "yes"}}, {"type": "node", "id": 69504387, "lat": 42.3796991, "lon": -71.0228172, "tags": {"name": "Wood Island", "network": "MBTA", "network:guid": "US-MA-MBTA", "network:short": "MBTA", "network:wikidata": "Q171985", "network:wikipedia": "en:Massachusetts Bay Transportation Authority", "operator": "Massachusetts Bay Transportation Authority", "operator:short": "MBTA", "operator:wikidata": "Q171985", "public_transport": "station", "railway": "station", "station": "subway", "subway": "yes", "train": "yes", "wheelchair": "yes", "wikidata": "Q4163500"}}, {"type": "node", "id": 69504418, "lat": 42.3312546, "lon": -71.0955776, "tags": {"name": "Roxbury Crossing", "network": "MBTA", "network:guid": "US-MA-MBTA", "network:short": "MBTA", "network:wikidata": "Q171985", "network:wikipedia": "en:Massachusetts Bay Transportation Authority", "operator": "Massachusetts Bay Transportation Authority", "operator:short": "MBTA", "operator:wikidata": "Q171985", "public_transport": "station", "railway": "station", "station": "subway", "subway": "yes", "train": "yes", "wheelchair": "yes", "wikidata": "Q3736876"}}, {"type": "node", "id": 69504429, "lat": 42.39051, "lon": -70.9971875, "tags": {"ele": "4", "gnis:feature_id": "617371", "name": "Suffolk Downs", "network": "MBTA", "network:guid": "US-MA-MBTA", "network:short": "MBTA", "network:wikidata": "Q171985", "network:wikipedia": "en:Massachusetts Bay Transportation Authority", "operator": "Massachusetts Bay Transportation Authority", "operator:short": "MBTA", "operator:wikidata": "Q171985", "public_transport": "station", "railway": "station", "station": "subway", "subway": "yes", "train": "yes", "wheelchair": "yes", "wikidata": "Q4250197"}}, {"type": "node", "id": 69504437, "lat": 42.3641269, "lon": -71.0186891, "tags": {"attribution": "massDOT", "bus": "yes", "highway": "bus_stop", "level": "1", "line": "Silver", "massgis:geom_id": "121", "name": "Terminal B East - Arrivals Level", "network": "MBTA", "network:wikidata": "Q171985", "network:wikipedia": "en:Massachusetts Bay Transportation Authority", "operator": "MBTA", "public_transport": "platform", "ref": "7093", "source": "massdot_import_081211"}}, {"type": "node", "id": 69504470, "lat": 42.3404851, "lon": -71.0713335, "tags": {"alt_name": "Washington St @ W Dedham St", "attribution": "massDOT", "bench": "yes", "bin": "yes", "bus": "yes", "highway": "bus_stop", "line": "Silver", "lit": "yes", "massgis:geom_id": "126", "name": "Union Park Street", "network": "MBTA", "network:wikidata": "Q171985", "network:wikipedia": "en:Massachusetts Bay Transportation Authority", "operator": "MBTA", "public_transport": "platform", "ref": "5100", "shelter": "yes", "source": "massdot_import_081211", "tactile_paving": "no"}}, {"type": "node", "id": 69504517, "lat": 42.3530978, "lon": -71.0644266, "tags": {"alt_name": "Tremont St @ Boylston Station", "attribution": "massDOT", "bench": "no", "bin": "yes", "bus": "yes", "highway": "bus_stop", "line": "Silver", "lit": "yes", "massgis:geom_id": "150", "name": "Boylston", "network": "MBTA", "network:wikidata": "Q171985", "network:wikipedia": "en:Massachusetts Bay Transportation Authority", "operator": "Massachusetts Bay Transportation Authority", "operator:short": "MBTA", "operator:wikidata": "Q171985", "public_transport": "platform", "ref": "8279", "shelter": "no", "source": "massdot_import_081211", "tactile_paving": "no"}}, {"type": "node", "id": 69504553, "lat": 42.3446927, "lon": -71.0372571, "tags": {"attribution": "massDOT", "bus": "yes", "highway": "bus_stop", "line": "Silver", "massgis:geom_id": "149", "name": "Drydock Ave @ Harbor St", "network": "MBTA", "network:wikidata": "Q171985", "network:wikipedia": "en:Massachusetts Bay Transportation Authority", "operator": "MBTA", "public_transport": "platform", "ref": "30256", "source": "massdot_import_081211"}}, {"type": "node", "id": 69504608, "lat": 42.3588043, "lon": -71.0577716, "tags": {"name": "State", "network": "MBTA", "network:wikidata": "Q171985", "operator": "Massachusetts Bay Transportation Authority", "operator:short": "MBTA", "operator:wikidata": "Q171985", "public_transport": "station", "railway": "station", "station": "subway", "subway": "yes", "train": "yes", "website": "https://www.mbta.com/stops/place-state", "wheelchair": "yes", "wikidata": "Q2913313", "wikipedia": "en:State station"}}, {"type": "node", "id": 69504619, "lat": 42.3452607, "lon": -71.0323206, "tags": {"attribution": "massDOT", "bus": "yes", "highway": "bus_stop", "line": "Silver", "massgis:geom_id": "132", "name": "Northern Ave @ Tide St", "network": "MBTA", "network:wikidata": "Q171985", "network:wikipedia": "en:Massachusetts Bay Transportation Authority", "operator": "MBTA", "public_transport": "platform", "ref": "30249", "source": "massdot_import_081211"}}, {"type": "node", "id": 69504637, "lat": 42.3387146, "lon": -71.0739646, "tags": {"alt_name": "Washington St @ W Newton St", "attribution": "massDOT", "bench": "yes", "bin": "no", "bus": "yes", "highway": "bus_stop", "line": "Silver", "lit": "yes", "massgis:geom_id": "125", "name": "Newton Street", "network": "MBTA", "network:wikidata": "Q171985", "network:wikipedia": "en:Massachusetts Bay Transportation Authority", "operator": "MBTA", "public_transport": "platform", "ref": "19402", "shelter": "yes", "source": "massdot_import_081211", "tactile_paving": "no"}}, {"type": "node", "id": 69504725, "lat": 42.3439638, "lon": -71.0657584, "tags": {"attribution": "massDOT", "bench": "no", "bin": "no", "bus": "yes", "check_date:shelter": "2025-05-22", "departures_board": "no", "highway": "bus_stop", "level": "0", "line": "Silver", "lit": "yes", "massgis:geom_id": "127", "name": "E Berkeley St @ Washington St", "network": "MBTA", "network:wikidata": "Q171985", "network:wikipedia": "en:Massachusetts Bay Transportation Authority", "operator": "MBTA", "public_transport": "platform", "ref": "36541", "shelter": "no", "source": "survey;local knowledge", "tactile_paving": "no", "wheelchair": "yes"}}, {"type": "node", "id": 69504742, "lat": 42.3473297, "lon": -71.0749406, "tags": {"addr:city": "Boston", "addr:housenumber": "145", "addr:postcode": "02116", "addr:state": "MA", "addr:street": "Dartmouth Street", "name": "Boston Back Bay", "network": "MBTA", "network:wikidata": "Q171985", "operator": "Amtrak", "public_transport": "station", "railway": "station", "railway:ref": "BBY", "train": "yes", "wheelchair": "yes", "wikidata": "Q3675991", "wikipedia": "en:Back Bay station"}}, {"type": "node", "id": 69504746, "lat": 42.3466126, "lon": -71.0648095, "tags": {"attribution": "massDOT", "bench": "no", "bin": "no", "bus": "yes", "departures_board": "no", "highway": "bus_stop", "line": "Silver", "lit": "yes", "massgis:geom_id": "128", "name": "Herald St @ Washington St", "network": "MBTA", "network:wikidata": "Q171985", "network:wikipedia": "en:Massachusetts Bay Transportation Authority", "operator": "MBTA", "public_transport": "platform", "ref": "148", "shelter": "no", "source": "massdot_import_081211", "tactile_paving": "no"}}, {"type": "node", "id": 69504763, "lat": 42.3297571, "lon": -71.0837878, "tags": {"attribution": "massDOT", "bench": "yes", "bin": "yes", "bus": "yes", "highway": "bus_stop", "line": "Silver", "massgis:geom_id": "153", "name": "Nubian - Berth 19", "network": "MBTA", "network:wikidata": "Q171985", "operator": "MBTA", "public_transport": "platform", "shelter": "yes", "source": "massdot_import_081211"}}, {"type": "node", "id": 69504816, "lat": 42.3381256, "lon": -71.0332127, "tags": {"attribution": "massDOT", "bus": "yes", "highway": "bus_stop", "line": "Silver", "massgis:geom_id": "143", "name": "East 1st St @ M St", "network": "MBTA", "network:wikidata": "Q171985", "network:wikipedia": "en:Massachusetts Bay Transportation Authority", "operator": "MBTA", "public_transport": "platform", "ref": "8851", "source": "massdot_import_081211"}}, {"type": "node", "id": 69504856, "lat": 42.3385164, "lon": -71.0312759, "tags": {"addr:city": "Boston", "addr:housenumber": "764", "addr:postcode": "02127", "addr:state": "MA", "addr:street": "East First Street", "amenity": "bus_station", "attribution": "massDOT", "bus": "yes", "departures_board": "no", "highway": "bus_stop", "line": "Silver", "massgis:geom_id": "144", "name": "City Point Bus Terminal", "network": "MBTA", "network:wikidata": "Q171985", "operator": "MBTA", "public_transport": "station", "ref": "33", "shelter": "yes", "source": "survey;local knowledge", "website": "https://www.mbta.com/stops/33", "wheelchair": "yes", "wikidata": "Q5123369", "wikipedia": "en:City Point Bus Terminal"}}, {"type": "node", "id": 69504866, "lat": 42.3375854, "lon": -71.0753481, "tags": {"alt_name": "Washington St @ Worcester St", "attribution": "massDOT", "bus": "yes", "highway": "bus_stop", "line": "Silver", "massgis:geom_id": "129", "name": "Worcester Square", "network": "MBTA", "network:wikidata": "Q171985", "network:wikipedia": "en:Massachusetts Bay Transportation Authority", "operator": "MBTA", "public_transport": "platform", "ref": "1787", "shelter": "no", "source": "massdot_import_081211"}}, {"type": "node", "id": 69504914, "lat": 42.3404742, "lon": -71.0356835, "tags": {"attribution": "massDOT", "bus": "yes", "highway": "bus_stop", "line": "Silver", "massgis:geom_id": "142", "name": "Summer St @ Powerhouse St", "network": "MBTA", "network:wikidata": "Q171985", "network:wikipedia": "en:Massachusetts Bay Transportation Authority", "operator": "MBTA", "public_transport": "platform", "ref": "208", "source": "massdot_import_081211"}}, {"type": "node", "id": 69504948, "lat": 42.3332398, "lon": -71.0813929, "tags": {"attribution": "massDOT", "bus": "yes", "highway": "bus_stop", "line": "Silver", "massgis:geom_id": "130", "name": "Melnea Cass Blvd @ Washington St", "network": "MBTA", "network:wikidata": "Q171985", "network:wikipedia": "en:Massachusetts Bay Transportation Authority", "operator": "MBTA", "public_transport": "platform", "ref": "7", "source": "massdot_import_081211"}}, {"type": "node", "id": 69504958, "lat": 42.3667045, "lon": -71.0677684, "tags": {"light_rail": "yes", "name": "Science Park/West End", "network": "MBTA", "operator": "Massachusetts Bay Transportation Authority", "operator:short": "MBTA", "operator:wikidata": "Q171985", "public_transport": "stop_position", "railway": "stop", "ref": "70208", "wheelchair": "yes", "wikidata": "Q7433590", "wikimedia_commons": "Category:Science Park station (MBTA)", "wikipedia": "en:Science Park station (MBTA)"}}, {"type": "node", "id": 69504980, "lat": 42.3496554, "lon": -71.0638505, "tags": {"name": "Tufts Medical Center", "network": "MBTA", "network:guid": "US-MA-MBTA", "network:short": "MBTA", "network:wikidata": "Q171985", "network:wikipedia": "en:Massachusetts Bay Transportation Authority", "operator": "Massachusetts Bay Transportation Authority", "operator:short": "MBTA", "operator:wikidata": "Q171985", "public_transport": "station", "railway": "station", "station": "subway", "subway": "yes", "train": "yes", "wheelchair": "yes", "wikidata": "Q3660983"}}, {"type": "node", "id": 69505117, "lat": 42.3647413, "lon": -71.0212962, "tags": {"attribution": "massDOT", "bench": "yes", "bin": "yes", "bus": "yes", "highway": "bus_stop", "level": "1", "line": "Silver", "massgis:geom_id": "135", "name": "Terminal A - Arrivals Level", "network": "MBTA", "network:wikidata": "Q171985", "network:wikipedia": "en:Massachusetts Bay Transportation Authority", "operator": "MBTA", "public_transport": "platform", "ref": "7091", "shelter": "yes", "source": "massdot_import_081211"}}, {"type": "node", "id": 69505179, "lat": 42.369457, "lon": -71.020134, "tags": {"attribution": "massDOT", "bench": "yes", "bus": "yes", "highway": "bus_stop", "level": "1", "line": "Silver", "massgis:geom_id": "137", "name": "Terminal E - Arrivals Level", "network": "MBTA", "network:wikidata": "Q171985", "network:wikipedia": "en:Massachusetts Bay Transportation Authority", "operator": "MBTA", "public_transport": "platform", "ref": "17095", "shelter": "yes", "source": "massdot_import_081211"}}, {"type": "node", "id": 69505188, "lat": 42.344707, "lon": -71.028419, "tags": {"attribution": "massDOT", "bus": "yes", "highway": "bus_stop", "line": "Silver", "massgis:geom_id": "147", "name": "27 Dry Dock Ave", "network": "MBTA", "network:wikidata": "Q171985", "network:wikipedia": "en:Massachusetts Bay Transportation Authority", "operator": "MBTA", "public_transport": "platform", "ref": "30251", "source": "massdot_import_081211"}}, {"type": "node", "id": 69505206, "lat": 42.3553673, "lon": -71.0601169, "tags": {"bus": "yes", "highway": "bus_stop", "line": "Silver", "massgis:geom_id": "152", "name": "Downtown Crossing - to Alewife", "network": "MBTA", "network:wikidata": "Q171985", "network:wikipedia": "en:Massachusetts Bay Transportation Authority", "operator": "MBTA", "public_transport": "platform", "ref": "70078"}}, {"type": "node", "id": 69505297, "lat": 42.3842955, "lon": -71.0770341, "tags": {"name": "Sullivan Square", "network": "MBTA", "network:guid": "US-MA-MBTA", "network:short": "MBTA", "network:wikidata": "Q171985", "network:wikipedia": "en:Massachusetts Bay Transportation Authority", "operator": "Massachusetts Bay Transportation Authority", "operator:short": "MBTA", "operator:wikidata": "Q171985", "public_transport": "stop_position", "railway": "stop", "subway": "yes"}}, {"type": "node", "id": 69505308, "lat": 42.343918, "lon": -71.034164, "tags": {"attribution": "massDOT", "bus": "yes", "highway": "bus_stop", "line": "Silver", "massgis:geom_id": "148", "name": "Black Falcon Ave @ Design Center Place", "network": "MBTA", "network:wikidata": "Q171985", "network:wikipedia": "en:Massachusetts Bay Transportation Authority", "operator": "MBTA", "public_transport": "platform", "ref": "30255", "source": "massdot_import_081211"}}, {"type": "node", "id": 69505337, "lat": 42.3468201, "lon": -71.0353733, "tags": {"attribution": "massDOT", "bus": "yes", "highway": "bus_stop", "line": "Silver", "massgis:geom_id": "133", "name": "Northern Ave @ Harbor St", "network": "MBTA", "network:wikidata": "Q171985", "network:wikipedia": "en:Massachusetts Bay Transportation Authority", "operator": "MBTA", "public_transport": "platform", "ref": "247", "shelter": "yes", "source": "massdot_import_081211"}}, {"type": "node", "id": 69505359, "lat": 42.3108218, "lon": -71.0535376, "tags": {"addr:housenumber": "121", "addr:street": "Savin Hill Avenue", "name": "Savin Hill", "network": "MBTA", "network:wikidata": "Q171985", "operator": "MBTA", "public_transport": "station", "railway": "station", "station": "subway", "subway": "yes", "train": "yes", "website": "https://www.mbta.com/", "wheelchair": "yes", "wikidata": "Q7428251", "wikipedia": "en:Savin Hill station"}}, {"type": "node", "id": 69505365, "lat": 42.3522166, "lon": -71.0626074, "tags": {"name": "Chinatown", "network": "MBTA", "network:wikidata": "Q171985", "network:wikipedia": "en:Massachusetts Bay Transportation Authority", "operator": "Massachusetts Bay Transportation Authority", "operator:short": "MBTA", "operator:wikidata": "Q171985", "public_transport": "station", "railway": "station", "station": "subway", "subway": "yes", "train": "yes", "website": "https://www.mbta.com/stops/place-chncl", "wheelchair": "yes", "wikidata": "Q966028", "wikipedia": "en:Chinatown station (MBTA)"}}, {"type": "node", "id": 69505387, "lat": 42.3471979, "lon": -71.0387834, "tags": {"attribution": "massDOT", "bench": "yes", "bin": "yes", "bus": "yes", "gtfs:stop_id": "74614", "highway": "bus_stop", "line": "Silver", "lit": "yes", "massgis:geom_id": "138", "name": "Silver Line Way", "network": "MBTA", "network:wikidata": "Q171985", "network:wikipedia": "en:Massachusetts Bay Transportation Authority", "operator": "MBTA", "public_transport": "platform", "ref": "74614", "shelter": "yes", "source": "massdot_import_081211", "tactile_paving": "no"}}, {"type": "node", "id": 273549146, "lat": 42.3656225, "lon": -71.0625404}, {"type": "node", "id": 273549147, "lat": 42.366377, "lon": -71.0611158}, {"type": "node", "id": 276790678, "lat": 42.3475808, "lon": -71.0986976, "tags": {"name": "Lansdowne", "network": "MBTA", "network:guid": "US-MA-MBTA", "network:short": "MBTA", "network:wikidata": "Q171985", "network:wikipedia": "en:Massachusetts Bay Transportation Authority", "operator": "MBTA", "operator:wikidata": "Q171985", "public_transport": "stop_position", "railway": "stop", "train": "yes"}}, {"type": "node", "id": 297475249, "lat": 42.3511745, "lon": -71.0554673, "tags": {"gtfs:stop_id": "NEC-2287-04", "iata": "ZTO", "local_ref": "4", "name": "Boston South Station", "name:Amtrak": "Boston South Station", "name:MBTA": "South Station", "network": "MBTA", "operator": "MBTA", "operator:wikidata": "Q171985", "public_transport": "stop_position", "railway": "stop", "railway:ref:Amtrak": "BOS", "ref": "NEC-2287-04", "train": "yes"}}, {"type": "node", "id": 297475251, "lat": 42.3511339, "lon": -71.0553134, "tags": {"gtfs:stop_id": "NEC-2287-06", "iata": "ZTO", "local_ref": "6", "name": "Boston South Station", "name:Amtrak": "Boston South Station", "name:MBTA": "South Station", "network": "Amtrak", "operator": "MBTA", "operator:wikidata": "Q171985", "public_transport": "stop_position", "railway": "stop", "railway:ref:Amtrak": "BOS", "ref": "NEC-2287-06", "train": "yes"}}, {"type": "node", "id": 297475253, "lat": 42.3511075, "lon": -71.0552093, "tags": {"gtfs:stop_id": "NEC-2287-07", "iata": "ZTO", "local_ref": "7", "name": "Boston South Station", "name:Amtrak": "Boston South Station", "name:MBTA": "South Station", "network": "Amtrak", "operator": "MBTA", "operator:wikidata": "Q171985", "public_transport": "stop_position", "railway": "stop", "railway:ref:Amtrak": "BOS", "ref": "NEC-2287-07", "train": "yes"}}, {"type": "node", "id": 297475255, "lat": 42.3510773, "lon": -71.055051, "tags": {"gtfs:stop_id": "NEC-2287-09", "iata": "ZTO", "local_ref": "9", "name": "Boston South Station", "name:Amtrak": "Boston South Station", "name:MBTA": "South Station", "network": "MBTA", "operator": "MBTA", "operator:wikidata": "Q171985", "public_transport": "stop_position", "railway": "stop", "railway:ref:Amtrak": "BOS", "ref": "NEC-2287-09", "train": "yes"}}, {"type": "node", "id": 314096484, "lat": 42.3190259, "lon": -71.0686729, "tags": {"gtfs:stop_id": "DB-2258-01", "name": "Uphams Corner", "network": "MBTA", "network:guid": "US-MA-MBTA", "network:short": "MBTA", "network:wikidata": "Q171985", "network:wikipedia": "en:Massachusetts Bay Transportation Authority", "operator": "MBTA", "operator:short": "MBTA", "operator:wikidata": "Q171985", "public_transport": "stop_position", "railway": "stop", "railway:position": "mi:225.8", "ref": "DB-2258-01", "train": "yes"}}, {"type": "node", "id": 325313825, "lat": 42.3294045, "lon": -71.0839093}, {"type": "node", "id": 325330495, "lat": 42.3295932, "lon": -71.0844643}, {"type": "node", "id": 325529701, "lat": 42.2849411, "lon": -71.1540525}, {"type": "node", "id": 325529703, "lat": 42.2849857, "lon": -71.1540941}, {"type": "node", "id": 325529705, "lat": 42.2850591, "lon": -71.1539501}, {"type": "node", "id": 325529707, "lat": 42.2850144, "lon": -71.1539085}, {"type": "node", "id": 325585368, "lat": 42.3289584, "lon": -71.0843623}, {"type": "node", "id": 325586463, "lat": 42.3294569, "lon": -71.0841952}, {"type": "node", "id": 325610169, "lat": 42.328906, "lon": -71.0840763}, {"type": "node", "id": 325970075, "lat": 42.3295328, "lon": -71.0841464}, {"type": "node", "id": 326182435, "lat": 42.2874892, "lon": -71.1304134}, {"type": "node", "id": 326194935, "lat": 42.2874377, "lon": -71.1303822}, {"type": "node", "id": 326210691, "lat": 42.2875405, "lon": -71.1302585}, {"type": "node", "id": 326214411, "lat": 42.2874891, "lon": -71.1302273}, {"type": "node", "id": 326315449, "lat": 42.3295725, "lon": -71.0835633}, {"type": "node", "id": 326315450, "lat": 42.329659, "lon": -71.0842026}, {"type": "node", "id": 326315451, "lat": 42.3298272, "lon": -71.084161}, {"type": "node", "id": 326315452, "lat": 42.3297407, "lon": -71.0835216}, {"type": "node", "id": 326656507, "lat": 42.3506338, "lon": -71.0553567}, {"type": "node", "id": 326657028, "lat": 42.3204504, "lon": -71.0524815}, {"type": "node", "id": 326657959, "lat": 42.3506969, "lon": -71.0557101}, {"type": "node", "id": 326658003, "lat": 42.3505254, "lon": -71.0552465}, {"type": "node", "id": 326658356, "lat": 42.3506693, "lon": -71.0558096}, {"type": "node", "id": 326658907, "lat": 42.3507044, "lon": -71.0556327}, {"type": "node", "id": 326659320, "lat": 42.3506845, "lon": -71.0554725}, {"type": "node", "id": 326661157, "lat": 42.3506161, "lon": -71.0553306}, {"type": "node", "id": 326661961, "lat": 42.3503255, "lon": -71.0564071}, {"type": "node", "id": 326665293, "lat": 42.3506717, "lon": -71.0558034}, {"type": "node", "id": 326666146, "lat": 42.350698, "lon": -71.0557032}, {"type": "node", "id": 326666217, "lat": 42.3494751, "lon": -71.0554772}, {"type": "node", "id": 326666228, "lat": 42.3505205, "lon": -71.0552437}, {"type": "node", "id": 326666308, "lat": 42.3504445, "lon": -71.0552153}, {"type": "node", "id": 326666461, "lat": 42.3506956, "lon": -71.0555199}, {"type": "node", "id": 326667969, "lat": 42.3507046, "lon": -71.0556256}, {"type": "node", "id": 327051699, "lat": 42.3502803, "lon": -71.0564298}, {"type": "node", "id": 327052248, "lat": 42.3506198, "lon": -71.0553357}, {"type": "node", "id": 327055710, "lat": 42.3506529, "lon": -71.0553908}, {"type": "node", "id": 327056107, "lat": 42.3506991, "lon": -71.0556961}, {"type": "node", "id": 327057290, "lat": 42.3505156, "lon": -71.055241}, {"type": "node", "id": 327057382, "lat": 42.3504393, "lon": -71.0552144}, {"type": "node", "id": 327057397, "lat": 42.3506529, "lon": -71.0558461}, {"type": "node", "id": 327058088, "lat": 42.3507045, "lon": -71.0556184}, {"type": "node", "id": 327058428, "lat": 42.3506942, "lon": -71.0555131}, {"type": "node", "id": 327060704, "lat": 42.3506234, "lon": -71.0553408}, {"type": "node", "id": 327060886, "lat": 42.3506235, "lon": -71.0558962}, {"type": "node", "id": 327062684, "lat": 42.3506499, "lon": -71.0553849}, {"type": "node", "id": 327062803, "lat": 42.3506898, "lon": -71.0557442}, {"type": "node", "id": 327062876, "lat": 42.3506559, "lon": -71.0558402}, {"type": "node", "id": 327063368, "lat": 42.3504341, "lon": -71.0552136}, {"type": "node", "id": 327063411, "lat": 42.3506929, "lon": -71.0555062}, {"type": "node", "id": 327063511, "lat": 42.3505108, "lon": -71.0552384}, {"type": "node", "id": 327064059, "lat": 42.3507045, "lon": -71.0556114}, {"type": "node", "id": 327065193, "lat": 42.350627, "lon": -71.0553461}, {"type": "node", "id": 327066968, "lat": 42.3506469, "lon": -71.0553792}, {"type": "node", "id": 327067111, "lat": 42.3506914, "lon": -71.0557374}, {"type": "node", "id": 327067804, "lat": 42.3505443, "lon": -71.055259}, {"type": "node", "id": 327067837, "lat": 42.3506587, "lon": -71.0558341}, {"type": "node", "id": 327068073, "lat": 42.3506914, "lon": -71.0554994}, {"type": "node", "id": 327068326, "lat": 42.3507029, "lon": -71.055661}, {"type": "node", "id": 327069781, "lat": 42.3506006, "lon": -71.0553112}, {"type": "node", "id": 327070222, "lat": 42.3506445, "lon": -71.0561697}, {"type": "node", "id": 327071637, "lat": 42.3506437, "lon": -71.0553734}, {"type": "node", "id": 327071871, "lat": 42.3506929, "lon": -71.0557306}, {"type": "node", "id": 327071947, "lat": 42.3506615, "lon": -71.0558282}, {"type": "node", "id": 327072719, "lat": 42.3505396, "lon": -71.0552557}, {"type": "node", "id": 327072762, "lat": 42.3506999, "lon": -71.0555478}, {"type": "node", "id": 327072781, "lat": 42.3507034, "lon": -71.055654}, {"type": "node", "id": 327072803, "lat": 42.3504653, "lon": -71.0552203}, {"type": "node", "id": 327074577, "lat": 42.3506085, "lon": -71.0562597}, {"type": "node", "id": 327074786, "lat": 42.3506046, "lon": -71.0553159}, {"type": "node", "id": 327077349, "lat": 42.3506641, "lon": -71.0554149}, {"type": "node", "id": 327077552, "lat": 42.3506943, "lon": -71.0557238}, {"type": "node", "id": 327078699, "lat": 42.3504601, "lon": -71.0552188}, {"type": "node", "id": 327078918, "lat": 42.3505349, "lon": -71.0552526}, {"type": "node", "id": 327079677, "lat": 42.350699, "lon": -71.0555408}, {"type": "node", "id": 327079784, "lat": 42.3507038, "lon": -71.0556468}, {"type": "node", "id": 327081249, "lat": 42.3207328, "lon": -71.0525166}, {"type": "node", "id": 327082409, "lat": 42.3506085, "lon": -71.0553207}, {"type": "node", "id": 327082856, "lat": 42.3506373, "lon": -71.0558747}, {"type": "node", "id": 327082870, "lat": 42.3506406, "lon": -71.0558691}, {"type": "node", "id": 327086220, "lat": 42.3506614, "lon": -71.0554087}, {"type": "node", "id": 327086962, "lat": 42.3506826, "lon": -71.055771}, {"type": "node", "id": 327087581, "lat": 42.3505302, "lon": -71.0552495}, {"type": "node", "id": 327087628, "lat": 42.350698, "lon": -71.0555338}, {"type": "node", "id": 327087714, "lat": 42.350455, "lon": -71.0552176}, {"type": "node", "id": 327089014, "lat": 42.3507029, "lon": -71.0555759}, {"type": "node", "id": 327089654, "lat": 42.3507042, "lon": -71.0556398}, {"type": "node", "id": 327090695, "lat": 42.350634, "lon": -71.0558802}, {"type": "node", "id": 327090759, "lat": 42.3506438, "lon": -71.0558635}, {"type": "node", "id": 327090902, "lat": 42.3496686, "lon": -71.0565972}, {"type": "node", "id": 327091181, "lat": 42.3506123, "lon": -71.0553256}, {"type": "node", "id": 327094950, "lat": 42.3506587, "lon": -71.0554027}, {"type": "node", "id": 327095733, "lat": 42.3506846, "lon": -71.0557643}, {"type": "node", "id": 327096126, "lat": 42.3505626, "lon": -71.0552732}, {"type": "node", "id": 327096650, "lat": 42.3504497, "lon": -71.0552164}, {"type": "node", "id": 327097070, "lat": 42.3506825, "lon": -71.055466}, {"type": "node", "id": 327097839, "lat": 42.3506968, "lon": -71.0555268}, {"type": "node", "id": 327154591, "lat": 42.3507023, "lon": -71.0555689}, {"type": "node", "id": 327155939, "lat": 42.3505843, "lon": -71.0552933}, {"type": "node", "id": 327156458, "lat": 42.3506306, "lon": -71.0558856}, {"type": "node", "id": 327156505, "lat": 42.3506469, "lon": -71.0558578}, {"type": "node", "id": 327159982, "lat": 42.3506558, "lon": -71.0553967}, {"type": "node", "id": 327160337, "lat": 42.35065, "lon": -71.0558519}, {"type": "node", "id": 327160477, "lat": 42.3506864, "lon": -71.0557577}, {"type": "node", "id": 327160850, "lat": 42.3504858, "lon": -71.0552272}, {"type": "node", "id": 327160889, "lat": 42.3505581, "lon": -71.0552695}, {"type": "node", "id": 327161939, "lat": 42.3506741, "lon": -71.0557969}, {"type": "node", "id": 327162805, "lat": 42.3507016, "lon": -71.0555617}, {"type": "node", "id": 327162909, "lat": 42.3506805, "lon": -71.0554593}, {"type": "node", "id": 327164306, "lat": 42.3506271, "lon": -71.0558909}, {"type": "node", "id": 327164663, "lat": 42.3505884, "lon": -71.0552977}, {"type": "node", "id": 327165753, "lat": 42.3502621, "lon": -71.0563604}, {"type": "node", "id": 327168385, "lat": 42.350674, "lon": -71.0554399}, {"type": "node", "id": 327169180, "lat": 42.3506881, "lon": -71.055751}, {"type": "node", "id": 327170048, "lat": 42.3504806, "lon": -71.0552253}, {"type": "node", "id": 327170098, "lat": 42.3505535, "lon": -71.0552659}, {"type": "node", "id": 327170124, "lat": 42.3506763, "lon": -71.0557906}, {"type": "node", "id": 327171085, "lat": 42.3507, "lon": -71.0556892}, {"type": "node", "id": 327171445, "lat": 42.3506784, "lon": -71.0554529}, {"type": "node", "id": 327173621, "lat": 42.3507009, "lon": -71.0555547}, {"type": "node", "id": 327175476, "lat": 42.3505926, "lon": -71.055302}, {"type": "node", "id": 327181305, "lat": 42.3497337, "lon": -71.0566215}, {"type": "node", "id": 327183411, "lat": 42.3506716, "lon": -71.0554336}, {"type": "node", "id": 327184467, "lat": 42.3507008, "lon": -71.0556821}, {"type": "node", "id": 327184685, "lat": 42.3504756, "lon": -71.0552235}, {"type": "node", "id": 327185186, "lat": 42.3505489, "lon": -71.0552624}, {"type": "node", "id": 327185827, "lat": 42.3506785, "lon": -71.055784}, {"type": "node", "id": 327185870, "lat": 42.3505058, "lon": -71.0552359}, {"type": "node", "id": 327186521, "lat": 42.3507044, "lon": -71.0556042}, {"type": "node", "id": 327186871, "lat": 42.3506762, "lon": -71.0554464}, {"type": "node", "id": 327189755, "lat": 42.3505967, "lon": -71.0553066}, {"type": "node", "id": 327191152, "lat": 42.3497526, "lon": -71.0566916}, {"type": "node", "id": 327194152, "lat": 42.3506692, "lon": -71.0554274}, {"type": "node", "id": 327195716, "lat": 42.3506806, "lon": -71.0557776}, {"type": "node", "id": 327196242, "lat": 42.3504705, "lon": -71.0552218}, {"type": "node", "id": 327196390, "lat": 42.3507016, "lon": -71.0556751}, {"type": "node", "id": 327196978, "lat": 42.3505008, "lon": -71.0552335}, {"type": "node", "id": 327198346, "lat": 42.3507042, "lon": -71.0555972}, {"type": "node", "id": 327198447, "lat": 42.3506897, "lon": -71.0554926}, {"type": "node", "id": 327200362, "lat": 42.350567, "lon": -71.0552771}, {"type": "node", "id": 327201588, "lat": 42.3204677, "lon": -71.0522396}, {"type": "node", "id": 327202990, "lat": 42.3497011, "lon": -71.0567171}, {"type": "node", "id": 327205309, "lat": 42.3506667, "lon": -71.0554211}, {"type": "node", "id": 327205580, "lat": 42.3506406, "lon": -71.0553678}, {"type": "node", "id": 327206056, "lat": 42.3507023, "lon": -71.055668}, {"type": "node", "id": 327207004, "lat": 42.3504183, "lon": -71.055212}, {"type": "node", "id": 327207626, "lat": 42.3506642, "lon": -71.055822}, {"type": "node", "id": 327208182, "lat": 42.3504958, "lon": -71.0552313}, {"type": "node", "id": 327208402, "lat": 42.3507038, "lon": -71.05559}, {"type": "node", "id": 327208611, "lat": 42.3506881, "lon": -71.0554858}, {"type": "node", "id": 327211458, "lat": 42.3505714, "lon": -71.0552809}, {"type": "node", "id": 327212433, "lat": 42.3505913, "lon": -71.0561961}, {"type": "node", "id": 327215497, "lat": 42.35058, "lon": -71.0552891}, {"type": "node", "id": 327215873, "lat": 42.3506372, "lon": -71.0553623}, {"type": "node", "id": 327216364, "lat": 42.3506668, "lon": -71.0558159}, {"type": "node", "id": 327217386, "lat": 42.3506956, "lon": -71.0557169}, {"type": "node", "id": 327217762, "lat": 42.3504908, "lon": -71.0552292}, {"type": "node", "id": 327220096, "lat": 42.3506864, "lon": -71.0554792}, {"type": "node", "id": 327220318, "lat": 42.3507034, "lon": -71.055583}, {"type": "node", "id": 327222273, "lat": 42.3503066, "lon": -71.0563373}, {"type": "node", "id": 327222409, "lat": 42.3505758, "lon": -71.055285}, {"type": "node", "id": 327526507, "lat": 42.3002678, "lon": -71.1139171}, {"type": "node", "id": 327542125, "lat": 42.3009393, "lon": -71.1134596}, {"type": "node", "id": 327992557, "lat": 42.2813244, "lon": -71.1601502}, {"type": "node", "id": 327992559, "lat": 42.2813615, "lon": -71.1602055}, {"type": "node", "id": 327992562, "lat": 42.2814215, "lon": -71.1601319}, {"type": "node", "id": 327992564, "lat": 42.2813844, "lon": -71.1600766}, {"type": "node", "id": 328109037, "lat": 42.3096885, "lon": -71.1081665}, {"type": "node", "id": 328132802, "lat": 42.3096519, "lon": -71.1080629}, {"type": "node", "id": 328167969, "lat": 42.2866137, "lon": -71.1454785}, {"type": "node", "id": 328177174, "lat": 42.2866688, "lon": -71.1454801}, {"type": "node", "id": 328183779, "lat": 42.2866661, "lon": -71.1456416}, {"type": "node", "id": 328194236, "lat": 42.286611, "lon": -71.1456399}, {"type": "node", "id": 328421196, "lat": 42.3508585, "lon": -71.0546343}, {"type": "node", "id": 328450235, "lat": 42.3513643, "lon": -71.0546905}, {"type": "node", "id": 328455243, "lat": 42.3513315, "lon": -71.0545527}, {"type": "node", "id": 328460832, "lat": 42.3511461, "lon": -71.0546385}, {"type": "node", "id": 328633260, "lat": 42.300815, "lon": -71.1135442}, {"type": "node", "id": 328725554, "lat": 42.3591269, "lon": -71.0567125, "tags": {"description": "Entrance to State", "railway": "subway_entrance"}}, {"type": "node", "id": 328907853, "lat": 42.3597017, "lon": -71.0272047}, {"type": "node", "id": 328907855, "lat": 42.359704, "lon": -71.0272732}, {"type": "node", "id": 328907857, "lat": 42.3597433, "lon": -71.0272876}, {"type": "node", "id": 328907859, "lat": 42.3597169, "lon": -71.0274601}, {"type": "node", "id": 328907861, "lat": 42.359704, "lon": -71.0274609}, {"type": "node", "id": 328907863, "lat": 42.3597039, "lon": -71.0274658}, {"type": "node", "id": 328907865, "lat": 42.3597041, "lon": -71.0274706}, {"type": "node", "id": 328907867, "lat": 42.3597044, "lon": -71.0274755}, {"type": "node", "id": 328907869, "lat": 42.3597049, "lon": -71.0274803}, {"type": "node", "id": 328907871, "lat": 42.3597055, "lon": -71.0274852}, {"type": "node", "id": 328907873, "lat": 42.3597064, "lon": -71.0274899}, {"type": "node", "id": 328907875, "lat": 42.3597075, "lon": -71.0274946}, {"type": "node", "id": 328907877, "lat": 42.3597087, "lon": -71.0274992}, {"type": "node", "id": 328907879, "lat": 42.3597101, "lon": -71.0275038}, {"type": "node", "id": 328907881, "lat": 42.3597117, "lon": -71.0275082}, {"type": "node", "id": 328907883, "lat": 42.3597135, "lon": -71.0275125}, {"type": "node", "id": 328907885, "lat": 42.3597154, "lon": -71.0275167}, {"type": "node", "id": 328907887, "lat": 42.3597175, "lon": -71.0275206}, {"type": "node", "id": 328907889, "lat": 42.3597197, "lon": -71.0275245}, {"type": "node", "id": 328907891, "lat": 42.3597221, "lon": -71.0275283}, {"type": "node", "id": 328907892, "lat": 42.3597246, "lon": -71.0275318}, {"type": "node", "id": 328907893, "lat": 42.3597272, "lon": -71.0275351}, {"type": "node", "id": 328907894, "lat": 42.3597301, "lon": -71.0275383}, {"type": "node", "id": 328907895, "lat": 42.3597329, "lon": -71.0275413}, {"type": "node", "id": 328907896, "lat": 42.359736, "lon": -71.0275441}, {"type": "node", "id": 328907898, "lat": 42.3597391, "lon": -71.0275466}, {"type": "node", "id": 328907900, "lat": 42.3597423, "lon": -71.0275489}, {"type": "node", "id": 328907902, "lat": 42.3597456, "lon": -71.027551}, {"type": "node", "id": 328907904, "lat": 42.359749, "lon": -71.0275528}, {"type": "node", "id": 328907906, "lat": 42.3597524, "lon": -71.0275544}, {"type": "node", "id": 328907908, "lat": 42.3597559, "lon": -71.0275558}, {"type": "node", "id": 328907910, "lat": 42.3597595, "lon": -71.0275569}, {"type": "node", "id": 328907912, "lat": 42.359763, "lon": -71.0275578}, {"type": "node", "id": 328907914, "lat": 42.3597667, "lon": -71.0275584}, {"type": "node", "id": 328907916, "lat": 42.3597703, "lon": -71.0275587}, {"type": "node", "id": 328907918, "lat": 42.3597739, "lon": -71.0275588}, {"type": "node", "id": 328907921, "lat": 42.3597776, "lon": -71.0275587}, {"type": "node", "id": 328907923, "lat": 42.3597812, "lon": -71.0275583}, {"type": "node", "id": 328907925, "lat": 42.3597848, "lon": -71.0275575}, {"type": "node", "id": 328907927, "lat": 42.3597884, "lon": -71.0275567}, {"type": "node", "id": 328907929, "lat": 42.3597919, "lon": -71.0275555}, {"type": "node", "id": 328907931, "lat": 42.3597954, "lon": -71.0275541}, {"type": "node", "id": 328907933, "lat": 42.3597988, "lon": -71.0275523}, {"type": "node", "id": 328907935, "lat": 42.3598021, "lon": -71.0275505}, {"type": "node", "id": 328907937, "lat": 42.3598054, "lon": -71.0275484}, {"type": "node", "id": 328907939, "lat": 42.3598086, "lon": -71.0275459}, {"type": "node", "id": 328907941, "lat": 42.3598117, "lon": -71.0275434}, {"type": "node", "id": 328907943, "lat": 42.3598147, "lon": -71.0275406}, {"type": "node", "id": 328907945, "lat": 42.3598176, "lon": -71.0275376}, {"type": "node", "id": 328907947, "lat": 42.3598203, "lon": -71.0275343}, {"type": "node", "id": 328907949, "lat": 42.3598229, "lon": -71.0275309}, {"type": "node", "id": 328907951, "lat": 42.3598254, "lon": -71.0275274}, {"type": "node", "id": 328907953, "lat": 42.3598278, "lon": -71.0275236}, {"type": "node", "id": 328907955, "lat": 42.35983, "lon": -71.0275197}, {"type": "node", "id": 328907957, "lat": 42.359832, "lon": -71.0275157}, {"type": "node", "id": 328907959, "lat": 42.3598339, "lon": -71.0275114}, {"type": "node", "id": 328907961, "lat": 42.3598356, "lon": -71.0275071}, {"type": "node", "id": 328907963, "lat": 42.3598371, "lon": -71.0275026}, {"type": "node", "id": 328907965, "lat": 42.3598386, "lon": -71.0274981}, {"type": "node", "id": 328907967, "lat": 42.3598397, "lon": -71.0274935}, {"type": "node", "id": 328907969, "lat": 42.3598408, "lon": -71.0274888}, {"type": "node", "id": 328907971, "lat": 42.3598416, "lon": -71.027484}, {"type": "node", "id": 328907973, "lat": 42.3598422, "lon": -71.0274792}, {"type": "node", "id": 328907975, "lat": 42.3598427, "lon": -71.0274743}, {"type": "node", "id": 328907977, "lat": 42.3598429, "lon": -71.0274695}, {"type": "node", "id": 328907979, "lat": 42.359843, "lon": -71.0274645}, {"type": "node", "id": 328907981, "lat": 42.3598429, "lon": -71.0274596}, {"type": "node", "id": 328907983, "lat": 42.3598425, "lon": -71.0274546}, {"type": "node", "id": 328907985, "lat": 42.359842, "lon": -71.0274498}, {"type": "node", "id": 328907987, "lat": 42.3598276, "lon": -71.0274508}, {"type": "node", "id": 328907989, "lat": 42.3597914, "lon": -71.0272845}, {"type": "node", "id": 328907991, "lat": 42.3598603, "lon": -71.0272529}, {"type": "node", "id": 328907993, "lat": 42.3598584, "lon": -71.027195}, {"type": "node", "id": 365922994, "lat": 42.3595655, "lon": -71.0519869, "tags": {"name": "Aquarium", "network": "MBTA", "network:guid": "US-MA-MBTA", "network:short": "MBTA", "network:wikidata": "Q171985", "network:wikipedia": "en:Massachusetts Bay Transportation Authority", "operator": "Massachusetts Bay Transportation Authority", "operator:short": "MBTA", "operator:wikidata": "Q171985", "public_transport": "station", "railway": "station", "station": "subway", "subway": "yes", "train": "yes", "wheelchair": "yes", "wikidata": "Q4069171"}}, {"type": "node", "id": 389822973, "lat": 42.3005222, "lon": -71.113509, "tags": {"bench": "yes", "bin": "yes", "bus": "yes", "departures_board": "realtime", "gtfs:feed": "US-MA-MBTA", "gtfs:stop_id": "875", "highway": "bus_stop", "lit": "yes", "name": "Forest Hills Station - Lower Busway", "network": "MBTA", "network:guid": "US-MA-MBTA", "network:short": "MBTA", "network:wikidata": "Q171985", "network:wikipedia": "en:Massachusetts Bay Transportation Authority", "operator": "Massachusetts Bay Transportation Authority", "operator:short": "MBTA", "operator:wikidata": "Q171985", "public_transport": "platform", "ref": "875", "shelter": "yes", "tactile_paving": "no"}}, {"type": "node", "id": 401950278, "lat": 42.3212144, "lon": -71.0522336, "tags": {"gtfs:stop_id": "MM-0023-S", "local_ref": "1", "name": "JFK/UMass", "network": "MBTA", "network:guid": "US-MA-MBTA", "network:short": "MBTA", "network:wikidata": "Q171985", "network:wikipedia": "en:Massachusetts Bay Transportation Authority", "operator": "MBTA", "operator:wikidata": "Q171985", "public_transport": "stop_position", "railway": "stop", "ref": "MM-0023-S", "train": "yes"}}, {"type": "node", "id": 402110760, "lat": 42.3662527, "lon": -71.0625313, "tags": {"covered": "yes", "gtfs:stop_id": "BNT-0000-09", "local_ref": "9", "name": "Boston North Station", "network": "Amtrak;MBTA", "operator": "MBTA", "public_transport": "stop_position", "railway": "buffer_stop", "railway:ref": "BON", "ref": "BNT-0000-09", "train": "yes"}}, {"type": "node", "id": 404724794, "lat": 42.2946634, "lon": -71.0785353, "tags": {"gtfs:stop_id": "DB-2240-02", "name": "Talbot Avenue", "network": "MBTA", "network:guid": "US-MA-MBTA", "network:short": "MBTA", "network:wikidata": "Q171985", "network:wikipedia": "en:Massachusetts Bay Transportation Authority", "operator": "MBTA", "operator:short": "MBTA", "operator:wikidata": "Q171985", "public_transport": "stop_position", "railway": "stop", "ref": "DB-2240-02", "train": "yes"}}, {"type": "node", "id": 404724816, "lat": 42.2806486, "lon": -71.0857381, "tags": {"gtfs:stop_id": "DB-2230-02", "name": "Morton Street", "network": "MBTA", "network:guid": "US-MA-MBTA", "network:short": "MBTA", "network:wikidata": "Q171985", "network:wikipedia": "en:Massachusetts Bay Transportation Authority", "operator": "MBTA", "operator:short": "MBTA", "operator:wikidata": "Q171985", "public_transport": "stop_position", "railway": "stop", "railway:position": "mi:223.0", "ref": "DB-2230-02", "train": "yes"}}, {"type": "node", "id": 404724825, "lat": 42.2721827, "lon": -71.0946389, "tags": {"name": "Blue Hill Avenue", "network": "MBTA", "network:guid": "US-MA-MBTA", "network:short": "MBTA", "network:wikidata": "Q171985", "network:wikipedia": "en:Massachusetts Bay Transportation Authority", "operator": "MBTA", "operator:short": "MBTA", "operator:wikidata": "Q171985", "public_transport": "stop_position", "railway": "stop", "ref": "DB-2222-02", "train": "yes"}}, {"type": "node", "id": 404724852, "lat": 42.2552484, "lon": -71.1176381, "tags": {"gtfs:stop_id": "DB-2205-02", "name": "Fairmount", "network": "MBTA", "network:short": "MBTA", "network:wikidata": "Q171985", "operator": "MBTA", "operator:short": "MBTA", "operator:wikidata": "Q171985", "public_transport": "stop_position", "railway": "stop", "railway:position": "mi:220.5", "ref": "DB-2205-02", "train": "yes"}}, {"type": "node", "id": 404724872, "lat": 42.2376958, "lon": -71.1336175, "tags": {"gtfs:stop_id": "FB-0095-04", "name": "Readville", "network": "MBTA", "network:guid": "US-MA-MBTA", "network:short": "MBTA", "network:wikidata": "Q171985", "network:wikipedia": "en:Massachusetts Bay Transportation Authority", "operator": "MBTA", "operator:short": "MBTA", "operator:wikidata": "Q171985", "public_transport": "stop_position", "railway": "stop", "ref": "FB-0095-04", "train": "yes"}}, {"type": "node", "id": 404738178, "lat": 42.3380993, "lon": -71.0872569, "tags": {"name": "Ruggles", "network:short": "MBTA", "public_transport": "stop_position", "railway": "stop", "railway:position": "mi:226.5", "ref": "2", "train": "yes"}}, {"type": "node", "id": 409737986, "lat": 42.2865995, "lon": -71.144128, "tags": {"gtfs:stop_id": "NB-0072-S", "local_ref": "1", "name": "Bellevue", "network": "MBTA", "network:guid": "US-MA-MBTA", "network:short": "MBTA", "network:wikidata": "Q171985", "network:wikipedia": "en:Massachusetts Bay Transportation Authority", "operator": "Massachusetts Bay Transit Authority", "operator:short": "MBTA", "operator:wikidata": "Q171985", "public_transport": "stop_position", "railway": "stop", "ref": "NB-0072-S", "train": "yes"}}, {"type": "node", "id": 409737998, "lat": 42.2855318, "lon": -71.1526179, "tags": {"gtfs:stop_id": "NB-0076-S", "local_ref": "1", "name": "Highland", "network": "MBTA", "network:guid": "US-MA-MBTA", "network:short": "MBTA", "network:wikidata": "Q171985", "operator": "Massachusetts Bay Transit Authority", "operator:short": "MBTA", "public_transport": "stop_position", "railway": "stop", "ref": "NB-0076-S", "train": "yes"}}, {"type": "node", "id": 409738001, "lat": 42.2844656, "lon": -71.1548571, "tags": {"gtfs:stop_id": "NB-0076-S", "local_ref": "1", "name": "Highland", "network": "MBTA", "network:guid": "US-MA-MBTA", "network:short": "MBTA", "network:wikidata": "Q171985", "operator": "Massachusetts Bay Transit Authority", "operator:short": "MBTA", "public_transport": "stop_position", "railway": "stop", "ref": "NB-0076-S", "train": "yes"}}, {"type": "node", "id": 409738009, "lat": 42.2801676, "lon": -71.1613684, "tags": {"gtfs:stop_id": "NB-0080-S", "local_ref": "1", "name": "West Roxbury", "network": "MBTA", "network:guid": "US-MA-MBTA", "network:short": "MBTA", "network:wikidata": "Q171985", "operator": "Massachusetts Bay Transit Authority", "operator:short": "MBTA", "public_transport": "stop_position", "railway": "stop", "ref": "NB-0080-S", "train": "yes"}}, {"type": "node", "id": 430605939, "lat": 42.3573378, "lon": -71.1411184}, {"type": "node", "id": 616943580, "lat": 42.3665045, "lon": -71.0620453, "tags": {"covered": "yes", "gtfs:stop_id": "BNT-0000-01", "local_ref": "1", "name": "Boston North Station", "network": "Amtrak;MBTA", "operator": "MBTA", "public_transport": "stop_position", "railway": "buffer_stop", "railway:ref": "BON", "ref": "BNT-0000-01", "train": "yes"}}, {"type": "node", "id": 621020084, "lat": 42.3492312, "lon": -71.0567047, "tags": {"amenity": "parking_entrance", "covered": "yes", "level": "2"}}, {"type": "node", "id": 621527744, "lat": 42.3525328, "lon": -71.0554282, "tags": {"attribution": "massDOT", "bus": "yes", "gtfs:stop_id": "74617", "highway": "bus_stop", "line": "Silver", "massgis:geom_id": "141", "name": "South Station", "network": "MBTA", "network:wikidata": "Q171985", "network:wikipedia": "en:Massachusetts Bay Transportation Authority", "operator": "MBTA", "public_transport": "stop_position", "ref": "74617", "source": "massdot_import_081211"}}, {"type": "node", "id": 636811603, "lat": 42.3663167, "lon": -71.0624082, "tags": {"covered": "yes", "gtfs:stop_id": "BNT-0000-07", "local_ref": "7", "name": "Boston North Station", "network": "Amtrak;MBTA", "operator": "MBTA", "public_transport": "stop_position", "railway": "buffer_stop", "railway:ref": "BON", "ref": "BNT-0000-07", "train": "yes"}}, {"type": "node", "id": 636811800, "lat": 42.3662086, "lon": -71.0626226, "tags": {"covered": "yes", "gtfs:stop_id": "BNT-0000-10", "local_ref": "10", "name": "Boston North Station", "network": "Amtrak;MBTA", "operator": "MBTA", "public_transport": "stop_position", "railway": "buffer_stop", "railway:ref": "BON", "ref": "BNT-0000-10", "train": "yes"}}, {"type": "node", "id": 636812328, "lat": 42.36638, "lon": -71.0622857, "tags": {"covered": "yes", "gtfs:stop_id": "BNT-0000-05", "local_ref": "5", "name": "Boston North Station", "network": "Amtrak;MBTA", "operator": "MBTA", "public_transport": "stop_position", "railway": "buffer_stop", "railway:ref": "BON", "ref": "BNT-0000-05", "train": "yes"}}, {"type": "node", "id": 636812646, "lat": 42.3664424, "lon": -71.0621649, "tags": {"covered": "yes", "gtfs:stop_id": "BNT-0000-03", "local_ref": "3", "name": "Boston North Station", "network": "Amtrak;MBTA", "operator": "MBTA", "public_transport": "stop_position", "railway": "buffer_stop", "railway:ref": "BON", "ref": "BNT-0000-03", "train": "yes"}}, {"type": "node", "id": 636812886, "lat": 42.3664579, "lon": -71.0621349, "tags": {"covered": "yes", "gtfs:stop_id": "BNT-0000-02", "local_ref": "2", "name": "Boston North Station", "network": "Amtrak;MBTA", "operator": "MBTA", "public_transport": "stop_position", "railway": "buffer_stop", "railway:ref": "BON", "ref": "BNT-0000-02", "train": "yes"}}, {"type": "node", "id": 636818683, "lat": 42.3510953, "lon": -71.055154, "tags": {"gtfs:stop_id": "NEC-2287-08", "iata": "ZTO", "local_ref": "8", "name": "Boston South Station", "name:Amtrak": "Boston South Station", "name:MBTA": "South Station", "network": "MBTA;Amtrak", "operator": "MBTA", "operator:wikidata": "Q171985", "public_transport": "stop_position", "railway": "stop", "railway:ref:Amtrak": "BOS", "ref": "NEC-2287-08", "train": "yes"}}, {"type": "node", "id": 636822071, "lat": 42.3506823, "lon": -71.054896, "tags": {"gtfs:stop_id": "NEC-2287-13", "iata": "ZTO", "local_ref": "13", "name": "Boston South Station", "name:Amtrak": "Boston South Station", "name:MBTA": "South Station", "operator": "MBTA", "operator:wikidata": "Q171985", "public_transport": "stop_position", "railway": "stop", "railway:ref:Amtrak": "BOS", "ref": "NEC-2287-13", "train": "yes"}}, {"type": "node", "id": 636822073, "lat": 42.3494835, "lon": -71.0555049}, {"type": "node", "id": 636822956, "lat": 42.3511485, "lon": -71.0553728, "tags": {"gtfs:stop_id": "NEC-2287-05", "iata": "ZTO", "local_ref": "5", "name": "Boston South Station", "name:Amtrak": "Boston South Station", "name:MBTA": "South Station", "network": "MBTA;Amtrak", "operator": "MBTA", "operator:wikidata": "Q171985", "public_transport": "stop_position", "railway": "stop", "railway:ref:Amtrak": "BOS", "ref": "NEC-2287-05", "train": "yes"}}, {"type": "node", "id": 636825223, "lat": 42.3511854, "lon": -71.0555266, "tags": {"gtfs:stop_id": "NEC-2287-03", "iata": "ZTO", "local_ref": "3", "name": "Boston South Station", "name:Amtrak": "Boston South Station", "name:MBTA": "South Station", "network": "MBTA", "operator": "MBTA", "operator:wikidata": "Q171985", "public_transport": "stop_position", "railway": "stop", "railway:ref:Amtrak": "BOS", "ref": "NEC-2287-03", "train": "yes"}}, {"type": "node", "id": 636826537, "lat": 42.3512049, "lon": -71.0556339, "tags": {"gtfs:stop_id": "NEC-2287-02", "iata": "ZTO", "local_ref": "2", "name": "Boston South Station", "name:Amtrak": "Boston South Station", "name:MBTA": "South Station", "network": "MBTA", "operator": "MBTA", "operator:wikidata": "Q171985", "public_transport": "stop_position", "railway": "stop", "railway:ref:Amtrak": "BOS", "ref": "NEC-2287-02", "train": "yes"}}, {"type": "node", "id": 636826851, "lat": 42.3512183, "lon": -71.0556899, "tags": {"gtfs:stop_id": "NEC-2287-01", "iata": "ZTO", "local_ref": "1", "name": "Boston South Station", "name:Amtrak": "Boston South Station", "name:MBTA": "South Station", "network": "MBTA", "operator": "MBTA", "operator:wikidata": "Q171985", "public_transport": "stop_position", "railway": "stop", "railway:ref:Amtrak": "BOS", "ref": "NEC-2287-01", "train": "yes"}}, {"type": "node", "id": 642733092, "lat": 42.3663925, "lon": -71.0622616, "tags": {"covered": "yes", "gtfs:stop_id": "BNT-0000-04", "local_ref": "4", "name": "Boston North Station", "network": "Amtrak;MBTA", "operator": "MBTA", "public_transport": "stop_position", "railway": "buffer_stop", "railway:ref": "BON", "ref": "BNT-0000-04", "train": "yes"}}, {"type": "node", "id": 642733094, "lat": 42.3663317, "lon": -71.0623789, "tags": {"covered": "yes", "gtfs:stop_id": "BNT-0000-06", "local_ref": "6", "name": "Boston North Station", "network": "Amtrak;MBTA", "operator": "MBTA", "public_transport": "stop_position", "railway": "buffer_stop", "railway:ref": "BON", "ref": "BNT-0000-06", "train": "yes"}}, {"type": "node", "id": 642733096, "lat": 42.3662692, "lon": -71.0624996, "tags": {"covered": "yes", "gtfs:stop_id": "BNT-0000-08", "local_ref": "8", "name": "Boston North Station", "network": "Amtrak;MBTA", "operator": "MBTA", "public_transport": "stop_position", "railway": "buffer_stop", "railway:ref": "BON", "ref": "BNT-0000-08", "train": "yes"}}, {"type": "node", "id": 731642036, "lat": 42.3613858, "lon": -71.0618961, "tags": {"gtfs:stop_id": "70038", "name": "Bowdoin", "network": "MBTA", "network:guid": "US-MA-MBTA", "network:short": "MBTA", "network:wikidata": "Q171985", "network:wikipedia": "en:Massachusetts Bay Transportation Authority", "operator": "Massachusetts Bay Transportation Authority", "operator:short": "MBTA", "operator:wikidata": "Q171985", "public_transport": "stop_position", "railway": "stop", "ref": "70038", "subway": "yes"}}, {"type": "node", "id": 731642037, "lat": 42.3611927, "lon": -71.0619361, "tags": {"gtfs:stop_id": "70038", "name": "Bowdoin", "network": "MBTA", "network:guid": "US-MA-MBTA", "network:short": "MBTA", "network:wikidata": "Q171985", "network:wikipedia": "en:Massachusetts Bay Transportation Authority", "operator": "Massachusetts Bay Transportation Authority", "operator:short": "MBTA", "operator:wikidata": "Q171985", "public_transport": "stop_position", "railway": "stop", "ref": "70038", "subway": "yes"}}, {"type": "node", "id": 879248900, "lat": 42.355252, "lon": -71.0620531, "tags": {"alt_name": "Temple Pl @ Washington St", "attribution": "massDOT", "bench": "yes", "bin": "yes", "bus": "yes", "highway": "bus_stop", "lit": "yes", "name": "Downtown Crossing", "network": "MBTA", "network:wikidata": "Q171985", "network:wikipedia": "en:Massachusetts Bay Transportation Authority", "operator": "MBTA", "public_transport": "platform", "ref": "49001", "shelter": "yes", "source": "massdot_import_081211", "tactile_paving": "yes"}}, {"type": "node", "id": 996932451, "lat": 42.350114, "lon": -71.0552083}, {"type": "node", "id": 996932459, "lat": 42.3510105, "lon": -71.0547586}, {"type": "node", "id": 996932491, "lat": 42.3494859, "lon": -71.056603}, {"type": "node", "id": 996932503, "lat": 42.3503897, "lon": -71.0551006}, {"type": "node", "id": 996932579, "lat": 42.3506873, "lon": -71.0561485}, {"type": "node", "id": 996932616, "lat": 42.3506744, "lon": -71.0561026}, {"type": "node", "id": 996932650, "lat": 42.3486781, "lon": -71.056516}, {"type": "node", "id": 996932694, "lat": 42.3489221, "lon": -71.0565765}, {"type": "node", "id": 996932770, "lat": 42.3506617, "lon": -71.0562333}, {"type": "node", "id": 996932790, "lat": 42.352671, "lon": -71.0550191, "tags": {"name": "South Station", "railway": "subway_entrance"}}, {"type": "node", "id": 996932803, "lat": 42.3508775, "lon": -71.0547035}, {"type": "node", "id": 996932817, "lat": 42.3510765, "lon": -71.0545272}, {"type": "node", "id": 996932843, "lat": 42.3484283, "lon": -71.0564749}, {"type": "node", "id": 996932900, "lat": 42.3492189, "lon": -71.0567576}, {"type": "node", "id": 996932915, "lat": 42.3494988, "lon": -71.0555547}, {"type": "node", "id": 996932924, "lat": 42.3528779, "lon": -71.0555024, "tags": {"name": "South Station", "railway": "subway_entrance", "wheelchair": "no"}}, {"type": "node", "id": 1036884905, "lat": 42.3360953, "lon": -71.0901932, "tags": {"name": "Ruggles", "network": "MBTA", "operator": "Massachusetts Bay Transportation Authority", "operator:short": "MBTA", "operator:wikidata": "Q171985", "public_transport": "stop_position", "railway": "stop", "subway": "yes"}}, {"type": "node", "id": 1037938783, "lat": 42.3365581, "lon": -71.0892701, "tags": {"addr:city": "Roxbury Crossing", "addr:postcode": "02120", "addr:state": "MA", "name": "Ruggles", "network": "MBTA", "network:guid": "US-MA-MBTA", "network:short": "MBTA", "network:wikidata": "Q171985", "network:wikipedia": "en:Massachusetts Bay Transportation Authority", "operator": "MBTA", "operator:wikidata": "Q171985", "public_transport": "station", "railway": "station", "railway:position": "mi:226.5", "train": "yes", "website": "https://www.mbta.com/", "wheelchair": "yes", "wikidata": "Q3736904", "wikipedia": "en:Ruggles station"}}, {"type": "node", "id": 1037994352, "lat": 42.3407175, "lon": -71.084277, "tags": {"name": "Massachusetts Avenue", "network": "MBTA", "network:guid": "US-MA-MBTA", "network:short": "MBTA", "network:wikidata": "Q171985", "network:wikipedia": "en:Massachusetts Bay Transportation Authority", "operator": "Massachusetts Bay Transportation Authority", "operator:short": "MBTA", "operator:wikidata": "Q171985", "public_transport": "stop_position", "railway": "stop", "subway": "yes"}}, {"type": "node", "id": 1037994375, "lat": 42.3380387, "lon": -71.0873956, "tags": {"name": "Ruggles", "network:short": "MBTA", "public_transport": "stop_position", "railway": "stop", "railway:position": "mi:226.5", "ref": "1", "train": "yes"}}, {"type": "node", "id": 1053355741, "lat": 42.3474694, "lon": -71.0992456, "tags": {"name": "Lansdowne (South Station)", "railway": "train_station_entrance", "wheelchair": "no"}}, {"type": "node", "id": 1102741792, "lat": 42.3745234, "lon": -71.0304696}, {"type": "node", "id": 1102741794, "lat": 42.3740039, "lon": -71.029908}, {"type": "node", "id": 1102741804, "lat": 42.3740927, "lon": -71.030758}, {"type": "node", "id": 1102741807, "lat": 42.3743619, "lon": -71.0300723}, {"type": "node", "id": 1102741812, "lat": 42.3742176, "lon": -71.0300043}, {"type": "node", "id": 1102741815, "lat": 42.3747737, "lon": -71.0299462}, {"type": "node", "id": 1102741818, "lat": 42.3737737, "lon": -71.0300821}, {"type": "node", "id": 1102741820, "lat": 42.3745568, "lon": -71.0298577}, {"type": "node", "id": 1102741821, "lat": 42.3747778, "lon": -71.0299764}, {"type": "node", "id": 1102741822, "lat": 42.3746257, "lon": -71.0301492}, {"type": "node", "id": 1102741824, "lat": 42.3740169, "lon": -71.0298726}, {"type": "node", "id": 1102741826, "lat": 42.3745584, "lon": -71.0302838}, {"type": "node", "id": 1102741828, "lat": 42.3746302, "lon": -71.0302821}, {"type": "node", "id": 1102741832, "lat": 42.3739867, "lon": -71.0302365}, {"type": "node", "id": 1102741835, "lat": 42.3739823, "lon": -71.0302691}, {"type": "node", "id": 1102741846, "lat": 42.3738456, "lon": -71.0306284}, {"type": "node", "id": 1102741863, "lat": 42.3743922, "lon": -71.0304311}, {"type": "node", "id": 1102741889, "lat": 42.374129, "lon": -71.0303254}, {"type": "node", "id": 1143179109, "lat": 42.3512161, "lon": -71.0414946, "tags": {"amenity": "ferry_terminal", "ferry": "yes", "name": "World Trade Center (West) Ferry Terminal", "public_transport": "station"}}, {"type": "node", "id": 1146549951, "lat": 42.3556523, "lon": -71.0496805, "tags": {"amenity": "ferry_terminal", "ferry": "yes", "name": "Rowes Wharf Ferry Terminal", "public_transport": "station"}}, {"type": "node", "id": 1146550134, "lat": 42.3727477, "lon": -71.0525492, "tags": {"addr:city": "Boston", "addr:postcode": "02129", "addr:state": "MA", "addr:street": "Constellation Wharf", "addr:unit": "Pier 4", "amenity": "ferry_terminal", "ferry": "yes", "internet_access": "no", "name": "Charlestown Navy Yard Ferry Terminal", "network": "MBTA", "operator": "MBTA", "public_transport": "station", "source": "survey;local knowledge", "website": "https://www.mbta.com/stops/Boat-Charlestown", "wheelchair": "yes"}}, {"type": "node", "id": 1146550359, "lat": 42.3607955, "lon": -71.0499641, "tags": {"amenity": "ferry_terminal", "ferry": "yes", "name": "Long Wharf (North) Ferry Terminal", "operator": "Water Transportation Alternatives", "public_transport": "station"}}, {"type": "node", "id": 1146550606, "lat": 42.3601422, "lon": -71.0274572, "tags": {"amenity": "ferry_terminal", "ferry": "yes", "name": "Logan Airport Ferry Terminal", "operator": "Water Transportation Alternatives", "public_transport": "station", "wheelchair": "yes"}}, {"type": "node", "id": 1146552076, "lat": 42.3594308, "lon": -71.0504562, "tags": {"addr:city": "Boston", "addr:housenumber": "66", "addr:postcode": "02129", "addr:state": "MA", "addr:street": "Long Wharf", "air_conditioning": "no", "amenity": "ferry_terminal", "ferry": "yes", "internet_access": "no", "name": "Long Wharf (South) Ferry Terminal", "network": "MBTA", "operator": "MBTA", "public_transport": "station", "website": "https://www.mbta.com/stops/Boat-Long-South", "wheelchair": "yes"}}, {"type": "node", "id": 1146564479, "lat": 42.3432641, "lon": -71.0365264, "tags": {"alt_name": "EDIC Pier #10", "amenity": "ferry_terminal", "ferry": "yes", "name": "EDIC Pier", "operator": "Economic Development Industrial Corporation", "public_transport": "station"}}, {"type": "node", "id": 1146564509, "lat": 42.3542823, "lon": -71.0483209, "tags": {"amenity": "ferry_terminal", "ferry": "yes", "name": "Courthouse Dock", "public_transport": "station"}}, {"type": "node", "id": 1176681869, "lat": 42.3332029, "lon": -71.1094759, "tags": {"light_rail": "yes", "name": "Mission Park", "network": "MBTA", "operator": "Massachusetts Bay Transportation Authority", "operator:short": "MBTA", "operator:wikidata": "Q171985", "public_transport": "station", "railway": "halt", "station": "light_rail", "wikidata": "Q9033695"}}, {"type": "node", "id": 1305540020, "lat": 42.3498554, "lon": -71.0891346, "tags": {"attribution": "massDOT", "bench": "no", "bin": "no", "bus": "yes", "highway": "bus_stop", "lit": "yes", "name": "Massachusetts Ave @ Marlborough St", "network": "MBTA", "network:wikidata": "Q171985", "network:wikipedia": "en:Massachusetts Bay Transportation Authority", "operator": "MBTA", "public_transport": "platform", "ref": "77", "shelter": "no", "source": "massdot_import_081211", "tactile_paving": "no"}}, {"type": "node", "id": 1305540819, "lat": 42.3480064, "lon": -71.0879361, "tags": {"attribution": "massDOT", "bench": "no", "bin": "yes", "bus": "yes", "departures_board": "no", "highway": "bus_stop", "lit": "yes", "name": "Massachusetts Ave @ Newbury St", "network": "MBTA", "network:wikidata": "Q171985", "network:wikipedia": "en:Massachusetts Bay Transportation Authority", "operator": "MBTA", "public_transport": "platform", "ref": "93", "shelter": "no", "source": "massdot_import_081211", "tactile_paving": "no"}}, {"type": "node", "id": 1305543792, "lat": 42.34248, "lon": -71.084702, "tags": {"attribution": "massDOT", "bench": "yes", "bin": "no", "bus": "yes", "highway": "bus_stop", "name": "Massachusetts Ave @ Huntington Ave", "network": "MBTA", "network:wikidata": "Q171985", "network:wikipedia": "en:Massachusetts Bay Transportation Authority", "operator": "MBTA", "public_transport": "platform", "ref": "82", "shelter": "yes", "source": "massdot_import_081211", "tactile_paving": "no"}}, {"type": "node", "id": 1305543793, "lat": 42.3416243, "lon": -71.0830504, "tags": {"bus": "yes", "highway": "bus_stop", "name": "Massachusetts Ave @ Massachusetts Ave Station", "network": "MBTA", "network:wikidata": "Q171985", "operator": "MBTA", "public_transport": "platform", "ref": "188"}}, {"type": "node", "id": 1305546723, "lat": 42.3346196, "lon": -71.0748697, "tags": {"attribution": "massDOT", "bench": "no", "bin": "yes", "bus": "yes", "highway": "bus_stop", "lit": "yes", "name": "Massachusetts Ave @ Harrison Ave", "network": "MBTA", "network:wikidata": "Q171985", "network:wikipedia": "en:Massachusetts Bay Transportation Authority", "operator": "MBTA", "public_transport": "platform", "ref": "854", "shelter": "yes", "source": "massdot_import_081211", "tactile_paving": "no"}}, {"type": "node", "id": 1305546724, "lat": 42.3388914, "lon": -71.080086, "tags": {"attribution": "massDOT", "bus": "yes", "highway": "bus_stop", "name": "Massachusetts Ave @ Tremont St", "network": "MBTA", "network:wikidata": "Q171985", "network:wikipedia": "en:Massachusetts Bay Transportation Authority", "operator": "MBTA", "public_transport": "platform", "ref": "84", "source": "massdot_import_081211"}}, {"type": "node", "id": 1305546726, "lat": 42.3362079, "lon": -71.076811, "tags": {"attribution": "massDOT", "bench": "yes", "bin": "no", "bus": "yes", "highway": "bus_stop", "name": "Massachusetts Ave @ Washington St", "network": "MBTA", "network:wikidata": "Q171985", "network:wikipedia": "en:Massachusetts Bay Transportation Authority", "operator": "MBTA", "public_transport": "platform", "ref": "59", "shelter": "no", "source": "massdot_import_081211", "tactile_paving": "no"}}, {"type": "node", "id": 1305546727, "lat": 42.3340991, "lon": -71.0725338, "tags": {"attribution": "massDOT", "bus": "yes", "highway": "bus_stop", "name": "Albany St opp Boston Medical", "network": "MBTA", "network:wikidata": "Q171985", "network:wikipedia": "en:Massachusetts Bay Transportation Authority", "operator": "MBTA", "public_transport": "platform", "ref": "10014", "source": "massdot_import_081211"}}, {"type": "node", "id": 1325749750, "lat": 42.3397019, "lon": -71.0904301}, {"type": "node", "id": 1325750304, "lat": 42.3403806, "lon": -71.089041}, {"type": "node", "id": 1325750443, "lat": 42.3403219, "lon": -71.0889427}, {"type": "node", "id": 1325750462, "lat": 42.3397932, "lon": -71.0904837}, {"type": "node", "id": 1326616560, "lat": 42.3664388, "lon": -71.062904}, {"type": "node", "id": 1399775331, "lat": 42.346439, "lon": -71.05162, "tags": {"attribution": "massDOT", "bus": "yes", "highway": "bus_stop", "name": "A St @ Mt Washington Ave", "network": "MBTA", "network:wikidata": "Q171985", "network:wikipedia": "en:Massachusetts Bay Transportation Authority", "operator": "MBTA", "public_transport": "platform", "ref": "11419", "source": "massdot_import_081211"}}, {"type": "node", "id": 1399775336, "lat": 42.348061, "lon": -71.050339, "tags": {"attribution": "massDOT", "bench": "no", "bin": "no", "bus": "yes", "highway": "bus_stop", "name": "A St @ Necco St", "network": "MBTA", "network:wikidata": "Q171985", "network:wikipedia": "en:Massachusetts Bay Transportation Authority", "operator": "MBTA", "public_transport": "platform", "ref": "11219", "shelter": "no", "source": "massdot_import_081211", "tactile_paving": "no"}}, {"type": "node", "id": 1399775361, "lat": 42.2828152, "lon": -71.0560223, "tags": {"attribution": "massDOT", "bus": "yes", "highway": "bus_stop", "name": "Adams St  @ Galivan Blvd", "network": "MBTA", "network:wikidata": "Q171985", "network:wikipedia": "en:Massachusetts Bay Transportation Authority", "operator": "MBTA", "public_transport": "platform", "ref": "13378", "source": "massdot_import_081211"}}, {"type": "node", "id": 1399775370, "lat": 42.2883028, "lon": -71.0554582, "tags": {"attribution": "massDOT", "bus": "yes", "departures_board": "no", "highway": "bus_stop", "name": "Adams St @ Ashmont St", "network": "MBTA", "network:wikidata": "Q171985", "network:wikipedia": "en:Massachusetts Bay Transportation Authority", "operator": "MBTA", "public_transport": "platform", "ref": "8684", "shelter": "no", "source": "massdot_import_081211"}}, {"type": "node", "id": 1399775395, "lat": 42.2883702, "lon": -71.0553569, "tags": {"attribution": "massDOT", "bus": "yes", "departures_board": "no", "highway": "bus_stop", "name": "Adams St @ Ashmont St", "network": "MBTA", "network:wikidata": "Q171985", "network:wikipedia": "en:Massachusetts Bay Transportation Authority", "operator": "MBTA", "public_transport": "platform", "ref": "3082", "shelter": "no", "source": "massdot_import_081211"}}, {"type": "node", "id": 1399775432, "lat": 42.295292, "lon": -71.056267, "tags": {"attribution": "massDOT", "bus": "yes", "highway": "bus_stop", "name": "Adams St @ Centre St", "network": "MBTA", "network:wikidata": "Q171985", "network:wikipedia": "en:Massachusetts Bay Transportation Authority", "operator": "MBTA", "public_transport": "platform", "ref": "8680", "source": "massdot_import_081211"}}, {"type": "node", "id": 1399775455, "lat": 42.294907, "lon": -71.056244, "tags": {"attribution": "massDOT", "bus": "yes", "highway": "bus_stop", "name": "Adams St @ Elmdale St", "network": "MBTA", "network:wikidata": "Q171985", "network:wikipedia": "en:Massachusetts Bay Transportation Authority", "operator": "MBTA", "public_transport": "platform", "ref": "3086", "source": "massdot_import_081211"}}, {"type": "node", "id": 1399775464, "lat": 42.285355, "lon": -71.0549423, "tags": {"attribution": "massDOT", "bench": "no", "bin": "no", "bus": "yes", "departures_board": "no", "highway": "bus_stop", "name": "Adams St @ Franconia St", "network": "MBTA", "network:wikidata": "Q171985", "network:wikipedia": "en:Massachusetts Bay Transportation Authority", "operator": "MBTA", "public_transport": "platform", "ref": "3080", "shelter": "no", "source": "massdot_import_081211", "tactile_paving": "no"}}, {"type": "node", "id": 1399775472, "lat": 42.2869892, "lon": -71.0546131, "tags": {"attribution": "massDOT", "bench": "no", "bin": "no", "bus": "yes", "departures_board": "no", "highway": "bus_stop", "lit": "no", "name": "Adams St @ Helena Rd", "network": "MBTA", "network:wikidata": "Q171985", "network:wikipedia": "en:Massachusetts Bay Transportation Authority", "operator": "MBTA", "public_transport": "platform", "ref": "8685", "shelter": "no", "source": "massdot_import_081211", "tactile_paving": "no"}}, {"type": "node", "id": 1399775476, "lat": 42.293022, "lon": -71.057243, "tags": {"attribution": "massDOT", "bus": "yes", "highway": "bus_stop", "name": "Adams St @ King St", "network": "MBTA", "network:wikidata": "Q171985", "network:wikipedia": "en:Massachusetts Bay Transportation Authority", "operator": "MBTA", "public_transport": "platform", "ref": "3085", "source": "massdot_import_081211"}}, {"type": "node", "id": 1399775478, "lat": 42.293217, "lon": -71.057343, "tags": {"attribution": "massDOT", "bus": "yes", "highway": "bus_stop", "name": "Adams St @ King St", "network": "MBTA", "network:wikidata": "Q171985", "network:wikipedia": "en:Massachusetts Bay Transportation Authority", "operator": "MBTA", "public_transport": "platform", "ref": "8681", "source": "massdot_import_081211"}}, {"type": "node", "id": 1399775483, "lat": 42.291489, "lon": -71.057297, "tags": {"attribution": "massDOT", "bus": "yes", "highway": "bus_stop", "name": "Adams St @ Lonsdale St", "network": "MBTA", "network:wikidata": "Q171985", "network:wikipedia": "en:Massachusetts Bay Transportation Authority", "operator": "MBTA", "public_transport": "platform", "ref": "8682", "source": "massdot_import_081211", "wheelchair": "yes"}},