{"version": 0.6, "generator": "Overpass API 0.7.62.10 2d4cfc48", "osm3s": {"timestamp_osm_base": "2026-03-09T22:46:29Z", "copyright": "The data included in this document is from www.openstreetmap.org. The data is made available under ODbL."}, "elements": [{"type": "node", "id": 61364949, "lat": 42.3377305, "lon": -71.0998509}, {"type": "node", "id": 61399904, "lat": 42.3370326, "lon": -71.1003142}, {"type": "node", "id": 240172417, "lat": 42.3778999, "lon": -71.0428603}, {"type": "node", "id": 240176467, "lat": 42.3786713, "lon": -71.0428251}, {"type": "node", "id": 257493925, "lat": 42.2482006, "lon": -71.1172368, "tags": {"addr:city": "Boston", "addr:housenumber": "81", "addr:postcode": "02136", "addr:state": "MA", "addr:street": "Williams Avenue", "amenity": "school", "attribution": "Office of Geographic and Environmental Information (MassGIS), Massachusetts Emergency Management Agency", "education": "school", "gnis:feature_id": "602862", "jurisdiction": "Local", "name": "Boston Police Academy", "old_name": "Fairmount School", "source_url": "http://mass.gov/mgis/policestations.htm"}}, {"type": "node", "id": 257578070, "lat": 42.2781322, "lon": -71.1219269}, {"type": "node", "id": 257578075, "lat": 42.2964821, "lon": -71.0804006}, {"type": "node", "id": 257578119, "lat": 42.2819989, "lon": -71.1741519, "tags": {"addr:city": "West Roxbury", "addr:housenumber": "1205", "addr:postcode": "02132", "addr:street": "Veterans of Foreign Wars Parkway", "amenity": "school", "grades": "9,10,11,12", "massgis:school_id": "00350579", "name": "Urban Science Academy", "phone": "+1 617-635-8930", "website": "http://bostonpublicschools.org/usa"}}, {"type": "node", "id": 257578122, "lat": 42.3013439, "lon": -71.0854516, "tags": {"addr:city": "Dorchester", "addr:housenumber": "2", "addr:postcode": "02121", "addr:state": "MA", "addr:street": "McLellan Street", "amenity": "school", "attribution": "Office of Geographic and Environmental Information (MassGIS)", "education": "school", "grades": "6,7,8", "massgis:school_id": "00350413", "name": "Boston Middle School Academy", "phone": "+1 617-635-1534", "source:url": "http://mass.gov/mgis/schools.htm", "type": "Public"}}, {"type": "node", "id": 257578145, "lat": 42.3234921, "lon": -71.072836, "tags": {"addr:city": "Roxbury", "addr:housenumber": "6", "addr:postcode": "02119", "addr:state": "MA", "addr:street": "Shirley Street", "amenity": "school", "attribution": "Office of Geographic and Environmental Information (MassGIS)", "education": "school", "ele": "9", "gnis:feature_id": "1973548", "grades": "K,1,2,3,4,5", "massgis:school_id": "00350288", "name": "Ralph Waldo Emerson School", "phone": "+1 617-635-8507", "source:url": "http://mass.gov/mgis/schools.htm", "type": "Public"}}, {"type": "node", "id": 257578171, "lat": 42.3279259, "lon": -71.0577382, "tags": {"addr:city": "Boston", "addr:housenumber": "52", "addr:postcode": "02127", "addr:street": "Boston Street", "amenity": "school", "email": "polishlanguageschool@yahoo.com", "grades": "PK,K,1,2,3,4,5,6,7,8", "name": "John Paul II Polish School", "phone": "+1 617-464-2485", "type": "private", "website": "https://www.psboston.org/"}}, {"type": "node", "id": 257578241, "lat": 42.2455401, "lon": -71.1321278, "tags": {"addr:city": "Hyde Park", "addr:housenumber": "1", "addr:postcode": "02136", "addr:state": "MA", "addr:street": "Westinghouse Plaza", "amenity": "school", "attribution": "Office of Geographic and Environmental Information (MassGIS)", "education": "school", "grades": "5,6,7,8,9,10,11,12", "massgis:school_id": "04120530", "name": "Academy Of the Pacific Rim Charter Public School", "phone": "+1 617-361-0050", "source:url": "http://mass.gov/mgis/schools.htm", "type": "Charter", "wikidata": "Q14715379"}}, {"type": "node", "id": 257578246, "lat": 42.3302027, "lon": -71.0768159}, {"type": "node", "id": 257578252, "lat": 42.3270054, "lon": -71.1076917}, {"type": "node", "id": 257578263, "lat": 42.3012848, "lon": -71.0586727, "tags": {"addr:city": "Boston", "addr:housenumber": "23", "addr:postcode": "02122", "addr:state": "MA", "addr:street": "Leonard Street", "amenity": "school", "attribution": "Office of Geographic and Environmental Information (MassGIS)", "education": "school", "grades": "6,7,8", "massgis:school_id": "04190305", "name": "Smith Leadership Academy Charter Public School", "phone": "+1 617-474-7950", "source:url": "http://mass.gov/mgis/schools.htm", "type": "Charter"}}, {"type": "node", "id": 257578310, "lat": 42.3535373, "lon": -71.0770897, "tags": {"addr:city": "Boston", "addr:housenumber": "107", "addr:postcode": "02116", "addr:state": "MA", "addr:street": "Marlborough Street", "amenity": "school", "charge": "23500 USD", "check_date": "2023-06-07", "education": "school", "email": "tlp@learningproject.org", "fax": "+1-617-266-3543", "fee": "yes", "grades": "K-6", "name": "The Learning Project Elementary School", "operator": "The Learning Project", "operator:type": "private", "phone": "+1-617-266-8427", "religion": "none", "school": "yes", "start_date": "1978", "type": "Private", "website": "https://www.learningproject.org/"}}, {"type": "node", "id": 257578322, "lat": 42.2926585, "lon": -71.1522903, "tags": {"addr:city": "West Roxbury", "addr:housenumber": "20", "addr:postcode": "02132", "addr:state": "MA", "addr:street": "Mount Vernon Street", "amenity": "school", "attribution": "Office of Geographic and Environmental Information (MassGIS)", "education": "school", "grades": "K,1,2,3,4,5,6,7,8", "massgis:school_id": "00350262", "name": "Lyndon", "phone": "+1 617-635-6824", "source:url": "http://mass.gov/mgis/schools.htm", "type": "Public"}}, {"type": "node", "id": 257578337, "lat": 42.3660949, "lon": -71.0533691, "tags": {"addr:city": "Boston", "addr:housenumber": "16", "addr:postcode": "02113", "addr:state": "MA", "addr:street": "Charter Street", "alt_name": "Eliot K-8 Innovation Lower School", "amenity": "school", "attribution": "Office of Geographic and Environmental Information (MassGIS)", "education": "school", "grades": "K,1,2,3,4,5", "massgis:school_id": "00350096", "name": "Eliot Elementary", "phone": "+1 617 635 8545", "source:url": "http://mass.gov/mgis/schools.htm", "type": "Public"}}, {"type": "node", "id": 257578352, "lat": 42.3483857, "lon": -71.0688702, "tags": {"addr:city": "Boston", "addr:housenumber": "152", "addr:postcode": "02116", "addr:state": "MA", "addr:street": "Arlington Street", "amenity": "school", "fax": "+1-617-635-8945", "grades": "6-12", "name": "Josiah Quincy Upper School", "operator": "Boston Public Schools", "operator:short": "BPS", "operator:type": "public", "operator:wikidata": "Q2215021", "operator:wikipedia": "en:Boston Public Schools", "phone": "+1-617-635-8940", "religion": "none", "type": "public", "website": "https://www.bostonpublicschools.org/jqus", "wheelchair": "yes"}}, {"type": "node", "id": 257578366, "lat": 42.3400095, "lon": -71.1541249}, {"type": "node", "id": 257578368, "lat": 42.3216311, "lon": -71.060871, "tags": {"addr:city": "Dorchester", "addr:housenumber": "11", "addr:postcode": "02125", "addr:state": "MA", "addr:street": "Mayhew Street", "amenity": "school", "attribution": "Office of Geographic and Environmental Information (MassGIS)", "education": "school", "grades": "5,6,7,8,9,10,11,12", "massgis:school_id": "04490305", "name": "Boston Collegiate Charter School", "phone": "+1 617-265-1172", "source:url": "http://mass.gov/mgis/schools.htm", "type": "Charter"}}, {"type": "node", "id": 257578369, "lat": 42.3384037, "lon": -71.0528848}, {"type": "node", "id": 257578370, "lat": 42.3485285, "lon": -71.065371}, {"type": "node", "id": 257578455, "lat": 42.3051984, "lon": -71.1035877, "tags": {"addr:city": "Jamaica Plain", "addr:housenumber": "215", "addr:postcode": "02130", "addr:state": "MA", "addr:street": "Forest Hills Street", "amenity": "school", "attribution": "Office of Geographic and Environmental Information (MassGIS)", "education": "school", "grades": "PK,K,1,2,3,4,5,6,7,8", "massgis:school_id": "00350947", "name": "Match Charter School", "phone": "+1-617-522-1841", "source_url": "http://mass.gov/mgis/schools.htm", "type": "Private"}}, {"type": "node", "id": 257578510, "lat": 42.3478206, "lon": -71.1066371}, {"type": "node", "id": 257578624, "lat": 42.3493369, "lon": -71.095856, "tags": {"addr:city": "Boston", "addr:housenumber": "650", "addr:postcode": "02215", "addr:state": "MA", "addr:street": "Beacon Street", "amenity": "school", "attribution": "Office of Geographic and Environmental Information (MassGIS)", "level": "3", "massgis:school_id": "05230001", "name": "EDCO Youth Alternative", "operator": "EDCO Collaborative", "phone": "+1 617 262 9562", "source_url": "http://mass.gov/mgis/schools.htm", "type": "Collaborative Program", "website": "https://edcoyouthalternative.com/"}}, {"type": "node", "id": 257578658, "lat": 42.3502549, "lon": -71.146141}, {"type": "node", "id": 257578678, "lat": 42.3405802, "lon": -71.0839169, "tags": {"addr:city": "Boston", "addr:housenumber": "396", "addr:postcode": "02118", "addr:state": "MA", "addr:street": "Northampton Street", "amenity": "school", "attribution": "Office of Geographic and Environmental Information (MassGIS)", "education": "school", "ele": "3", "gnis:feature_id": "2342076", "grades": "9,10,11,12", "massgis:school_id": "00350036", "name": "Carter Developmental Day Care", "phone": "+1 617-635-9832", "source:url": "http://mass.gov/mgis/schools.htm", "type": "Public"}}, {"type": "node", "id": 257578741, "lat": 42.3360441, "lon": -71.0296633, "tags": {"addr:city": "South Boston", "addr:housenumber": "866", "addr:postcode": "02127", "addr:state": "MA", "addr:street": "East Broadway", "amenity": "school", "attribution": "Office of Geographic and Environmental Information (MassGIS)", "education": "school", "grades": "PK,K,1,2,3,4,5,6,7,8", "massgis:school_id": "00350836", "name": "South Boston Catholic Academy", "old_name": "St Brigid Elementary", "phone": "+1 617-268-2326", "source:url": "http://mass.gov/mgis/schools.htm", "type": "Private"}}, {"type": "node", "id": 257578756, "lat": 42.3215482, "lon": -71.1017268, "tags": {"addr:city": "Jamaica Plain", "addr:housenumber": "39", "addr:postcode": "02130-0947", "addr:state": "MA", "addr:street": "Lamartine Street", "amenity": "school", "attribution": "Office of Geographic and Environmental Information (MassGIS)", "education": "school", "grades": "5,6,7,8", "massgis:school_id": "00350782", "name": "Nativity Prep School", "phone": "+1 617 442 1993", "source_url": "http://mass.gov/mgis/schools.htm", "type": "Private"}}, {"type": "node", "id": 257578795, "lat": 42.3521992, "lon": -71.0819614, "tags": {"addr:city": "Boston", "addr:housenumber": "245-247", "addr:postcode": "02116", "addr:state": "MA", "addr:street": "Marlborough Street", "amenity": "school", "attribution": "Office of Geographic and Environmental Information (MassGIS)", "check_date": "2023-06-07", "education": "school", "email": "info@newmanboston.org", "fax": "+1-617-267-7070", "grades": "9,10,11,12", "massgis:school_id": "00350794", "name": "Newman School", "phone": "+1-617-267-4530", "source:url": "http://mass.gov/mgis/schools.htm", "start_date": "1945-01-01", "type": "Private", "website": "https://www.newmanboston.org/", "wikidata": "Q7753886"}}, {"type": "node", "id": 257578798, "lat": 42.3063673, "lon": -71.1092262, "tags": {"addr:city": "Jamaica Plain", "addr:housenumber": "144", "addr:postcode": "02130", "addr:state": "MA", "addr:street": "McBride Street", "amenity": "school", "attribution": "Office of Geographic and Environmental Information (MassGIS)", "education": "school", "grades": "9,10,11,12", "massgis:school_id": "00350535", "name": "The English High", "phone": "+1 617-635-8979", "source:url": "http://mass.gov/mgis/schools.htm", "type": "Public", "wikidata": "Q5378285"}}, {"type": "node", "id": 257578879, "lat": 42.3141479, "lon": -71.0992242, "tags": {"addr:city": "Roxbury", "addr:housenumber": "80", "addr:postcode": "02119", "addr:state": "MA", "addr:street": "School Street", "amenity": "school", "attribution": "Office of Geographic and Environmental Information (MassGIS)", "education": "school", "ele": "26", "gnis:feature_id": "2342237", "grades": "9,10,11,12", "massgis:school_id": "00350543", "name": "Egleston Community High School", "phone": "+1 617 635 6429", "source_url": "http://mass.gov/mgis/schools.htm", "type": "Public"}}, {"type": "node", "id": 257578906, "lat": 42.2668707, "lon": -71.1044325}, {"type": "node", "id": 257578975, "lat": 42.3165878, "lon": -71.1016242, "tags": {"addr:city": "Roxbury", "addr:housenumber": "164", "addr:postcode": "02119", "addr:state": "MA", "addr:street": "School Street", "amenity": "school", "attribution": "Office of Geographic and Environmental Information (MassGIS)", "education": "school", "ele": "18", "gnis:feature_id": "1974270", "grades": "K,1,2,3,4,5", "massgis:school_id": "00350100", "name": "Ellis Mendell School", "phone": "+1 617 635 8234", "source_url": "http://mass.gov/mgis/schools.htm", "type": "Public"}}, {"type": "node", "id": 257579011, "lat": 42.2856968, "lon": -71.1083206}, {"type": "node", "id": 257579019, "lat": 42.3251158, "lon": -71.0756533}, {"type": "node", "id": 257579041, "lat": 42.2843397, "lon": -71.0765165}, {"type": "node", "id": 257579069, "lat": 42.2815463, "lon": -71.0948031}, {"type": "node", "id": 257579087, "lat": 42.2907757, "lon": -71.0493123, "tags": {"addr:city": "Dorchester", "addr:housenumber": "239", "addr:postcode": "02122", "addr:state": "MA", "addr:street": "Neponset Avenue", "amenity": "school", "attribution": "Office of Geographic and Environmental Information (MassGIS)", "education": "school", "grades": "PK,K,1,2,3,4,5,6,7,8", "massgis:school_id": "00350822", "name": "St Ann Elementary", "phone": "+1 617-825-6262", "source:url": "http://mass.gov/mgis/schools.htm", "type": "Private"}}, {"type": "node", "id": 257579097, "lat": 42.3802573, "lon": -71.0609101, "tags": {"addr:city": "Charlestown", "addr:housenumber": "240", "addr:postcode": "02129", "addr:state": "MA", "addr:street": "Medford Street", "amenity": "school", "attribution": "Office of Geographic and Environmental Information (MassGIS)", "education": "school", "grades": "9,10,11,12", "massgis:school_id": "00350515", "name": "Charlestown High School", "phone": "+1 617 635 9914", "source_url": "http://mass.gov/mgis/schools.htm", "type": "Public", "wikidata": "Q5084219"}}, {"type": "node", "id": 257579116, "lat": 42.3333437, "lon": -71.0445499}, {"type": "node", "id": 257579146, "lat": 42.2851577, "lon": -71.1180176}, {"type": "node", "id": 257579168, "lat": 42.3329963, "lon": -71.1011675}, {"type": "node", "id": 257579226, "lat": 42.2955955, "lon": -71.0708745, "tags": {"addr:city": "Dorchester", "addr:housenumber": "22", "addr:postcode": "02124", "addr:state": "MA", "addr:street": "Regina Road", "amenity": "school", "attribution": "Office of Geographic and Environmental Information (MassGIS)", "education": "school", "ele": "33", "fax": "+1-703-738-1510", "gnis:feature_id": "1973074", "grades": "6-8", "massgis:school_id": "00350211", "name": "Roxbury Prep Lucy Stone Campus", "operator": "Roxbury Prep", "operator:type": "charter", "phone": "+1-617-979-0115", "source:url": "http://mass.gov/mgis/schools.htm", "type": "Public", "website": "https://roxburyprep.uncommonschools.org/lucy-stone/"}}, {"type": "node", "id": 257579289, "lat": 42.2547984, "lon": -71.1237378, "tags": {"addr:city": "Hyde Park", "addr:housenumber": "1286", "addr:postcode": "02136", "addr:state": "MA", "addr:street": "Hyde Park Avenue", "amenity": "school", "attribution": "Office of Geographic and Environmental Information (MassGIS)", "check_date": "2023-08-18", "education": "school", "ele": "21", "gnis:feature_id": "2342001", "grades": "6,7,8,9", "massgis:school_id": "04160305", "name": "Boston Preparatory Charter School", "phone": "+1 617-333-6688", "source:url": "http://mass.gov/mgis/schools.htm", "type": "Charter"}}, {"type": "node", "id": 257579375, "lat": 42.2930321, "lon": -71.0661423, "tags": {"addr:city": "Dorchester", "addr:housenumber": "154", "addr:postcode": "02124", "addr:state": "MA", "addr:street": "Centre Street", "amenity": "school", "attribution": "Office of Geographic and Environmental Information (MassGIS)", "education": "school", "grades": "5,6,7,8", "massgis:school_id": "00350729", "name": "Epiphany School", "phone": "+1 617-326-0425", "source:url": "http://mass.gov/mgis/schools.htm", "type": "Private"}}, {"type": "node", "id": 257579455, "lat": 42.2774283, "lon": -71.165439}, {"type": "node", "id": 257579585, "lat": 42.324475, "lon": -71.0708348, "tags": {"addr:city": "Roxbury", "addr:housenumber": "76", "addr:postcode": "02119", "addr:state": "MA", "addr:street": "Shirley Street", "amenity": "school", "attribution": "Office of Geographic and Environmental Information (MassGIS)", "education": "school", "ele": "4", "gnis:feature_id": "2342138", "grades": "9,10,11,12", "massgis:school_id": "00350518", "name": "Community Academy", "phone": "+1 617-635-7734", "source:url": "http://mass.gov/mgis/schools.htm", "type": "Public"}}, {"type": "node", "id": 257579590, "lat": 42.2770001, "lon": -71.1034517}, {"type": "node", "id": 257579628, "lat": 42.3281457, "lon": -71.1114501, "tags": {"addr:city": "Jamaica Plain", "addr:housenumber": "161", "addr:postcode": "02130", "addr:state": "MA", "addr:street": "South Huntington Avenue", "amenity": "school", "attribution": "Office of Geographic and Environmental Information (MassGIS)", "grades": "SP", "massgis:school_id": "00350791", "name": "Dr. Frederick H. Knight Children's Center", "phone": "+1 617 264 5349", "source_url": "http://mass.gov/mgis/schools.htm", "type": "Approved Special Education"}}, {"type": "node", "id": 257579682, "lat": 42.2516134, "lon": -71.1328147}, {"type": "node", "id": 257579710, "lat": 42.3076784, "lon": -71.0659688, "tags": {"addr:city": "Dorchester", "addr:housenumber": "294", "addr:postcode": "02122", "addr:state": "MA", "addr:street": "Bowdoin Street", "amenity": "school", "attribution": "Office of Geographic and Environmental Information (MassGIS)", "education": "school", "grades": "6,7,8", "massgis:school_id": "00350426", "name": "Harbor School", "phone": "+1-617-625-6365", "source_url": "http://mass.gov/mgis/schools.htm", "type": "Public"}}, {"type": "node", "id": 257579769, "lat": 42.3402989, "lon": -71.1547284}, {"type": "node", "id": 257579829, "lat": 42.3500616, "lon": -71.1454645, "tags": {"addr:city": "Brighton", "addr:housenumber": "20", "addr:postcode": "02135", "addr:state": "MA", "addr:street": "Warren Street", "amenity": "school", "attribution": "Office of Geographic and Environmental Information (MassGIS)", "education": "school", "grades": "9,10,11,12", "massgis:school_id": "00350541", "name": "Another Course To College", "phone": "+1-617-635-8865", "source_url": "http://mass.gov/mgis/schools.htm", "type": "Public"}}, {"type": "node", "id": 257579838, "lat": 42.3089862, "lon": -71.077559}, {"type": "node", "id": 257579845, "lat": 42.2919955, "lon": -71.0642813, "tags": {"addr:city": "Dorchester", "addr:housenumber": "197", "addr:postcode": "02124", "addr:state": "MA", "addr:street": "Centre Avenue", "amenity": "school", "attribution": "Office of Geographic and Environmental Information (MassGIS)", "education": "school", "grades": "PK,K,1,2,3,4,5,6,7,8", "massgis:school_id": "00350920", "name": "St Mark Elementary", "phone": "+1 617-282-2577", "source:url": "http://mass.gov/mgis/schools.htm", "type": "Private"}}, {"type": "node", "id": 257579908, "lat": 42.3524328, "lon": -71.1529868, "tags": {"addr:city": "Brighton", "addr:housenumber": "25", "addr:postcode": "02135", "addr:state": "MA", "addr:street": "Arlington Street", "amenity": "school", "attribution": "Office of Geographic and Environmental Information (MassGIS)", "denomination": "catholic", "education": "school", "grades": "PK,K,1,2,3,4,5,6,7,8", "massgis:school_id": "00350844", "name": "Saint Columbkille Partnership School", "phone": "+1-617-254-3110", "religion": "christian", "source:url": "http://mass.gov/mgis/schools.htm", "type": "Private", "website": "https://stcps.org/"}}, {"type": "node", "id": 257579946, "lat": 42.263526, "lon": -71.1558297, "tags": {"addr:city": "West Roxbury", "addr:housenumber": "5125", "addr:postcode": "02132", "addr:state": "MA", "addr:street": "Washington Street", "amenity": "school", "attribution": "Office of Geographic and Environmental Information (MassGIS)", "education": "school", "ele": "43", "gnis:feature_id": "603237", "grades": "K,1,2,3,4,5", "massgis:school_id": "00350021", "name": "Beethoven School", "phone": "+1 617-635-8149", "source:url": "http://mass.gov/mgis/schools.htm", "type": "Public"}}, {"type": "node", "id": 257580000, "lat": 42.275471, "lon": -71.0921779}, {"type": "node", "id": 257580023, "lat": 42.2719908, "lon": -71.1621651}, {"type": "node", "id": 257580030, "lat": 42.32796, "lon": -71.1057207}, {"type": "node", "id": 257580080, "lat": 42.3166954, "lon": -71.0856336}, {"type": "node", "id": 257580090, "lat": 42.3411015, "lon": -71.0688472, "tags": {"addr:city": "Boston", "addr:housenumber": "74", "addr:postcode": "02118", "addr:state": "MA", "addr:street": "Union Park", "amenity": "school", "attribution": "Office of Geographic and Environmental Information (MassGIS)", "check_date": "2024-12-19", "education": "school", "grades": "9,10,11,12", "massgis:school_id": "00350716", "name": "Cathedral High", "operator:type": "private", "phone": "+1 617-542-2325", "religion": "christian", "source:url": "http://mass.gov/mgis/schools.htm", "type": "Private", "wikidata": "Q5052234"}}, {"type": "node", "id": 257580107, "lat": 42.2633986, "lon": -71.1179363, "tags": {"addr:city": "Hyde Park", "addr:housenumber": "655", "addr:postcode": "02136", "addr:street": "Metropolitan Avenue", "amenity": "school", "education": "school", "name": "Hyde Park Education Complex"}}, {"type": "node", "id": 257580108, "lat": 42.3009267, "lon": -71.0612323, "tags": {"addr:city": "Dorchester", "addr:housenumber": "11", "addr:postcode": "02122", "addr:state": "MA", "addr:street": "Charles Street", "amenity": "school", "attribution": "Office of Geographic and Environmental Information (MassGIS)", "education": "school", "grades": "6,7,8", "massgis:school_id": "00350415", "name": "Grover Cleveland", "phone": "+1 617-635-8631", "source:url": "http://mass.gov/mgis/schools.htm", "type": "Public"}}, {"type": "node", "id": 257580191, "lat": 42.3511302, "lon": -71.1614958, "tags": {"addr:city": "Brighton", "addr:housenumber": "50", "addr:postcode": "02135", "addr:state": "MA", "addr:street": "Beechcroft Street", "amenity": "school", "attribution": "Office of Geographic and Environmental Information (MassGIS)", "grades": "K,1,2,3,4,5,6,7,8", "massgis:school_id": "00350004", "name": "Mary Lyon", "phone": "+1 617 635 7945", "source_url": "http://mass.gov/mgis/schools.htm", "type": "Public"}}, {"type": "node", "id": 257580214, "lat": 42.3075239, "lon": -71.0842792, "tags": {"addr:city": "Dorchester", "addr:housenumber": "515", "addr:postcode": "02121", "addr:state": "MA", "addr:street": "Blue Hill Avenue", "amenity": "school", "attribution": "Office of Geographic and Environmental Information (MassGIS)", "education": "school", "ele": "38", "gnis:feature_id": "2341538", "grades": "5,6,7,8", "massgis:school_id": "00350778", "name": "Mother Caroline Academy", "phone": "+1 617-427-1177", "source:url": "http://mass.gov/mgis/schools.htm", "type": "Private"}}, {"type": "node", "id": 257580219, "lat": 42.3521128, "lon": -71.1209974, "tags": {"addr:city": "Boston", "addr:housenumber": "1001", "addr:postcode": "02215", "addr:state": "MA", "addr:street": "Commonwealth Avenue", "amenity": "school", "attribution": "Office of Geographic and Environmental Information (MassGIS)", "education": "school", "grades": "9,10,11,12", "massgis:school_id": "04690505", "name": "MATCH Charter Public High School", "phone": "+1 617 232 0300", "source_url": "http://mass.gov/mgis/schools.htm", "type": "Charter"}}, {"type": "node", "id": 257580234, "lat": 42.2819097, "lon": -71.0512447, "tags": {"addr:city": "Dorchester", "addr:housenumber": "29", "addr:postcode": "02124", "addr:state": "MA", "addr:street": "Rita Road", "amenity": "school", "attribution": "Office of Geographic and Environmental Information (MassGIS)", "education": "school", "grades": "K,1,2,3,4,5,6,7,8", "massgis:school_id": "00350834", "name": "St Brendan Elementary", "phone": "+1 617-282-3388", "source:url": "http://mass.gov/mgis/schools.htm", "type": "Private"}}, {"type": "node", "id": 257580243, "lat": 42.3332168, "lon": -71.0443863}, {"type": "node", "id": 257580296, "lat": 42.2707467, "lon": -71.0921613, "tags": {"addr:city": "Mattapan", "addr:housenumber": "120", "addr:postcode": "02126", "addr:state": "MA", "addr:street": "Babson Street", "amenity": "school", "attribution": "Office of Geographic and Environmental Information (MassGIS)", "education": "school", "grades": "K,1,2,3,4,5,6,7,8", "massgis:school_id": "00350820", "name": "Saint Angela Elementary School", "phone": "+1-617-296-1161", "source_url": "http://mass.gov/mgis/schools.htm", "type": "Private"}}, {"type": "node", "id": 257580431, "lat": 42.2610063, "lon": -71.1508808}, {"type": "node", "id": 257580435, "lat": 42.388642, "lon": -71.0046154}, {"type": "node", "id": 257580448, "lat": 42.3320337, "lon": -71.0303346}, {"type": "node", "id": 257580453, "lat": 42.2743918, "lon": -71.0672091, "tags": {"addr:city": "Dorchester", "addr:housenumber": "2214", "addr:postcode": "02124", "addr:state": "MA", "addr:street": "Dorchester Avenue", "amenity": "school", "attribution": "Office of Geographic and Environmental Information (MassGIS)", "education": "school", "grades": "PK,K,1,2,3,4,5,6,7,8", "massgis:school_id": "00350856", "name": "Saint John Paul II Lower Mills Catholic Academy", "old_name": "St Gregory Elementary", "source:url": "http://mass.gov/mgis/schools.htm", "type": "Private"}}, {"type": "node", "id": 257580580, "lat": 42.3309702, "lon": -71.1100492, "tags": {"addr:city": "Boston", "addr:housenumber": "53", "addr:postcode": "02120", "addr:state": "MA", "addr:street": "Parker Hill Avenue", "amenity": "school", "attribution": "Office of Geographic and Environmental Information (MassGIS)", "education": "school", "grades": "SP", "massgis:school_id": "00350768", "name": "Manville", "phone": "+1 617 232 8390", "source_url": "http://mass.gov/mgis/schools.htm", "type": "Approved Special Education"}}, {"type": "node", "id": 257580591, "lat": 42.2822803, "lon": -71.1748744, "tags": {"addr:city": "West Roxbury", "addr:housenumber": "1205", "addr:postcode": "02132", "addr:street": "Veterans of Foreign Wars Parkway", "amenity": "school", "grades": "9,10,11,12", "name": "West Roxbury Academy", "phone": "+1 617-635-8935", "website": "https://www.bostonpublicschools.org/westroxbury"}}, {"type": "node", "id": 257580598, "lat": 42.3582148, "lon": -71.0719535, "tags": {"addr:city": "Boston", "addr:housenumber": "17", "addr:postcode": "02108", "addr:state": "MA", "addr:street": "Brimmer Street", "alt_name": "Advent", "amenity": "school", "attribution": "Office of Geographic and Environmental Information (MassGIS)", "education": "school", "grades": "K,1,2,3,4,5,6", "massgis:school_id": "00350702", "name": "Advent School", "phone": "+1 617 742 0520", "source:url": "http://mass.gov/mgis/schools.htm", "type": "Private"}}, {"type": "node", "id": 257580627, "lat": 42.3183813, "lon": -71.075913}, {"type": "node", "id": 257580660, "lat": 42.3151026, "lon": -71.079701}, {"type": "node", "id": 257580673, "lat": 42.2939231, "lon": -71.0626871, "tags": {"addr:city": "Dorchester", "addr:housenumber": "1669", "addr:postcode": "02122", "addr:state": "MA", "addr:street": "Dorchester Avenue", "amenity": "school", "attribution": "Office of Geographic and Environmental Information (MassGIS)", "education": "school", "grades": "PK,K,1,2,3,4,5", "massgis:school_id": "00350266", "name": "Dr. William W. Henderson Inclusion Elementary School", "phone": "+1-617-635-8725", "source:url": "http://mass.gov/mgis/schools.htm", "type": "Public"}}, {"type": "node", "id": 257580681, "lat": 42.3521617, "lon": -71.1375176, "tags": {"addr:city": "Allston", "addr:housenumber": "40", "addr:postcode": "02134", "addr:state": "MA", "addr:street": "Armington Street", "amenity": "school", "attribution": "Office of Geographic and Environmental Information (MassGIS)", "education": "school", "grades": "PK,K,1,2,3,4,5", "massgis:school_id": "00350013", "name": "Horace Mann School for the Deaf and Hard of Hearing", "phone": "+1 617-635-8532", "source:url": "http://mass.gov/mgis/schools.htm", "type": "Public", "website": "https://www.bostonpublicschools.org/school/horace-mann-school-deaf-and-hard-hearing", "wikidata": "Q5901978", "wikipedia": "en:Horace Mann School for the Deaf and Hard of Hearing"}}, {"type": "node", "id": 257580702, "lat": 42.3563955, "lon": -71.0717155, "tags": {"addr:city": "Boston", "addr:housenumber": "67", "addr:postcode": "02108", "addr:state": "MA", "addr:street": "Brimmer Street", "amenity": "school", "attribution": "Office of Geographic and Environmental Information (MassGIS)", "education": "school", "grades": "K,1,2,3,4", "massgis:school_id": "00350805", "name": "Park Street School", "phone": "+1 617 523 7577", "source:url": "http://mass.gov/mgis/schools.htm", "type": "Private", "website": "https://www.parkstreetschool.org/"}}, {"type": "node", "id": 257580781, "lat": 42.3409688, "lon": -71.0685895, "tags": {"addr:city": "Boston", "addr:housenumber": "595", "addr:postcode": "02118", "addr:state": "MA", "addr:street": "Harrison Avenue", "amenity": "school", "attribution": "Office of Geographic and Environmental Information (MassGIS)", "check_date": "2024-12-19", "education": "school", "grades": "K,1,2,3,4,5,6,7,8", "massgis:school_id": "00350714", "name": "Cathedral Elementary", "operator:type": "private", "phone": "+1 617-422-0042", "religion": "christian", "source:url": "http://mass.gov/mgis/schools.htm", "type": "Private"}}, {"type": "node", "id": 257580796, "lat": 42.3151419, "lon": -71.0673127, "tags": {"addr:city": "Dorchester", "addr:housenumber": "516", "addr:postcode": "02125", "addr:state": "MA", "addr:street": "Columbia Road", "amenity": "school", "attribution": "Office of Geographic and Environmental Information (MassGIS)", "education": "school", "grades": "PK,K,1,2,3,4,5,6,7,8", "massgis:school_id": "00350868", "name": "St Kevin Elementary", "phone": "+1 617-825-3883", "source:url": "http://mass.gov/mgis/schools.htm", "type": "Private"}}, {"type": "node", "id": 257580853, "lat": 42.2942731, "lon": -71.0486426}, {"type": "node", "id": 257580855, "lat": 42.2751752, "lon": -71.1267607}, {"type": "node", "id": 257580873, "lat": 42.3129652, "lon": -71.1034209, "tags": {"addr:city": "Jamaica Plain", "addr:housenumber": "54", "addr:postcode": "02130", "addr:state": "MA", "addr:street": "Brookside Avenue", "amenity": "school", "attribution": "Office of Geographic and Environmental Information (MassGIS)", "education": "school", "grades": "PK,K,1,2,3,4,5,6,7,8", "massgis:school_id": "00350800", "name": "Our Lady Of Lourdes", "phone": "+1 617 524 6136", "source_url": "http://mass.gov/mgis/schools.htm", "type": "Private"}}, {"type": "node", "id": 257580926, "lat": 42.2812487, "lon": -71.0695697, "tags": {"addr:city": "Dorchester", "addr:housenumber": "18", "addr:postcode": "02124", "addr:state": "MA", "addr:street": "Croftland Avenue", "amenity": "school", "attribution": "Office of Geographic and Environmental Information (MassGIS)", "check_date": "2024-09-12", "education": "school", "grades": "6,7,8", "massgis:school_id": "00350490", "name": "Dr. William W. Henderson K-12 Inclusion School", "old_name": "Woodrow Wilson Middle School", "phone": "+1-617-635-8827", "source_url": "http://mass.gov/mgis/schools.htm", "type": "Public"}}, {"type": "node", "id": 257580927, "lat": 42.3310985, "lon": -71.0995729}, {"type": "node", "id": 257580960, "lat": 42.2778238, "lon": -71.0774497, "tags": {"addr:city": "Mattapan", "addr:housenumber": "1060", "addr:postcode": "02126", "addr:state": "MA", "addr:street": "Morton Street", "amenity": "school", "attribution": "Office of Geographic and Environmental Information (MassGIS)", "education": "school", "ele": "29", "gnis:feature_id": "1972267", "grades": "PK,K,1,2,3,4,5", "massgis:school_id": "00350054", "name": "Charles H Taylor School", "phone": "+1 617-635-8731", "source:url": "http://mass.gov/mgis/schools.htm", "type": "Public"}}, {"type": "node", "id": 257580972, "lat": 42.2401336, "lon": -71.1369784, "tags": {"addr:city": "Readville", "addr:housenumber": "20", "addr:postcode": "02136", "addr:state": "MA", "addr:street": "Como Road", "alt_name": "St Anne Elementary", "amenity": "school", "attribution": "Office of Geographic and Environmental Information (MassGIS)", "education": "school", "ele": "21", "gnis:feature_id": "598795", "grades": "K,1,2,3,4,5,6,7,8", "massgis:school_id": "00350824", "name": "Saint Annes School", "phone": "+1 617-361-3563", "source:url": "http://mass.gov/mgis/schools.htm", "type": "Private"}}, {"type": "node", "id": 257580978, "lat": 42.3638786, "lon": -71.0528614, "tags": {"addr:city": "Boston", "addr:housenumber": "9", "addr:postcode": "02113", "addr:state": "MA", "addr:street": "Moon Street", "amenity": "school", "attribution": "Office of Geographic and Environmental Information (MassGIS)", "education": "school", "grades": "PK,K,1,2,3,4,5,6,7,8", "massgis:school_id": "00350862", "name": "Saint John Elementary", "phone": "+1 617 227 3143", "source:url": "http://mass.gov/mgis/schools.htm", "type": "Private"}}, {"type": "node", "id": 257581055, "lat": 42.2782717, "lon": -71.1579704, "tags": {"addr:city": "West Roxbury", "addr:housenumber": "40", "addr:postcode": "02132", "addr:state": "MA", "addr:street": "Saint Theresa Avenue", "amenity": "school", "attribution": "Office of Geographic and Environmental Information (MassGIS)", "education": "school", "grades": "PK,K,1,2,3,4,5,6,7,8", "massgis:school_id": "00350894", "name": "St Theresa Elementary School", "phone": "+1 617-323-1050", "source:url": "http://mass.gov/mgis/schools.htm", "type": "Private"}}, {"type": "node", "id": 257581071, "lat": 42.2865889, "lon": -71.0730417}, {"type": "node", "id": 257581104, "lat": 42.3503117, "lon": -71.0823043, "tags": {"addr:city": "Boston", "addr:housenumber": "30", "addr:postcode": "02116", "addr:state": "MA", "addr:street": "Fairfield Street", "amenity": "school", "attribution": "Office of Geographic and Environmental Information (MassGIS)", "education": "school", "grades": "SP", "massgis:school_id": "00350760", "name": "The Kingsley School", "phone": "+1-617-536-5984", "source:url": "http://mass.gov/mgis/schools.htm", "type": "private", "website": "https://www.kingsley.org/"}}, {"type": "node", "id": 257581151, "lat": 42.3075539, "lon": -71.0660957, "tags": {"addr:city": "Dorchester", "addr:housenumber": "284", "addr:postcode": "02122", "addr:state": "MA", "addr:street": "Bowdoin Street", "amenity": "school", "attribution": "Office of Geographic and Environmental Information (MassGIS)", "education": "school", "grades": "K,1,2,3,4,5,6,7,8", "massgis:school_id": "00350892", "name": "Saint Peter Elementary School", "phone": "+1 617-282-8573", "source:url": "http://mass.gov/mgis/schools.htm", "type": "Private"}}, {"type": "node", "id": 257581174, "lat": 42.2935421, "lon": -71.0541412}, {"type": "node", "id": 257581212, "lat": 42.2777479, "lon": -71.1344317}, {"type": "node", "id": 257581239, "lat": 42.3139093, "lon": -71.097888, "tags": {"addr:city": "Roxbury", "addr:housenumber": "61", "addr:postcode": "02119", "addr:state": "MA", "addr:street": "School Street", "amenity": "school", "attribution": "Office of Geographic and Environmental Information (MassGIS)", "education": "school", "grades": "PK,K,1,2,3,4,5,6,7,8", "massgis:school_id": "00350691", "name": "Rafael Hernandez", "phone": "+1 617 635 8187", "source_url": "http://mass.gov/mgis/schools.htm", "type": "Public"}}, {"type": "node", "id": 257581249, "lat": 42.3087803, "lon": -71.1033512}, {"type": "node", "id": 257581269, "lat": 42.2650096, "lon": -71.1167059}, {"type": "node", "id": 257581304, "lat": 42.3231296, "lon": -71.0580666}, {"type": "node", "id": 257581393, "lat": 42.2848418, "lon": -71.0802478, "tags": {"addr:city": "Dorchester", "addr:housenumber": "29", "addr:postcode": "02124", "addr:state": "MA", "addr:street": "Stanton Street", "amenity": "school", "attribution": "Office of Geographic and Environmental Information (MassGIS)", "education": "school", "grades": "PK,K,1,2,3,4,5,6,7,8", "massgis:school_id": "00350872", "name": "St Matthew Elementary", "phone": "+1 617-825-7955", "source:url": "http://mass.gov/mgis/schools.htm", "type": "Private"}}, {"type": "node", "id": 325301759, "lat": 42.3123307, "lon": -71.0537534}, {"type": "node", "id": 325304698, "lat": 42.2720324, "lon": -71.0918831}, {"type": "node", "id": 325305850, "lat": 42.2719153, "lon": -71.0919104}, {"type": "node", "id": 325312187, "lat": 42.272034, "lon": -71.0915774}, {"type": "node", "id": 325312498, "lat": 42.3608675, "lon": -71.0698945}, {"type": "node", "id": 325318750, "lat": 42.3167519, "lon": -71.0434143}, {"type": "node", "id": 325318992, "lat": 42.3151484, "lon": -71.0882654}, {"type": "node", "id": 325319155, "lat": 42.3173487, "lon": -71.0435703}, {"type": "node", "id": 325319344, "lat": 42.3159103, "lon": -71.093215}, {"type": "node", "id": 325319858, "lat": 42.3175626, "lon": -71.0422237}, {"type": "node", "id": 325320458, "lat": 42.3161465, "lon": -71.0877898}, {"type": "node", "id": 325320880, "lat": 42.3157496, "lon": -71.0880767}, {"type": "node", "id": 325322621, "lat": 42.3158763, "lon": -71.0877424}, {"type": "node", "id": 325322862, "lat": 42.3164621, "lon": -71.0928151}, {"type": "node", "id": 325324661, "lat": 42.3383345, "lon": -71.0529961}, {"type": "node", "id": 325326246, "lat": 42.3376828, "lon": -71.0524887}, {"type": "node", "id": 325329152, "lat": 42.3380333, "lon": -71.0523056}, {"type": "node", "id": 325329447, "lat": 42.3155657, "lon": -71.0879365}, {"type": "node", "id": 325329977, "lat": 42.3152195, "lon": -71.0883188}, {"type": "node", "id": 325331253, "lat": 42.3174895, "lon": -71.0423618}, {"type": "node", "id": 325331749, "lat": 42.316748, "lon": -71.0435526}, {"type": "node", "id": 325331841, "lat": 42.3161295, "lon": -71.0877769}, {"type": "node", "id": 325333348, "lat": 42.3157376, "lon": -71.0881296}, {"type": "node", "id": 325336202, "lat": 42.3385835, "lon": -71.0526745}, {"type": "node", "id": 325338095, "lat": 42.3608493, "lon": -71.0697291}, {"type": "node", "id": 325339915, "lat": 42.3384288, "lon": -71.0522527}, {"type": "node", "id": 325341059, "lat": 42.3172963, "lon": -71.0425503}, {"type": "node", "id": 325341221, "lat": 42.3161076, "lon": -71.0879568}, {"type": "node", "id": 325341354, "lat": 42.3154229, "lon": -71.0883472}, {"type": "node", "id": 325341763, "lat": 42.3376928, "lon": -71.0525678}, {"type": "node", "id": 325342124, "lat": 42.3173945, "lon": -71.0433561}, {"type": "node", "id": 325342497, "lat": 42.3155809, "lon": -71.0879461}, {"type": "node", "id": 325342833, "lat": 42.2716347, "lon": -71.0918797}, {"type": "node", "id": 325342980, "lat": 42.3125548, "lon": -71.0536922}, {"type": "node", "id": 325343136, "lat": 42.3157181, "lon": -71.0881148}, {"type": "node", "id": 325347311, "lat": 42.2719385, "lon": -71.0919038}, {"type": "node", "id": 325348814, "lat": 42.3379749, "lon": -71.0528736}, {"type": "node", "id": 325351859, "lat": 42.3384129, "lon": -71.0522714}, {"type": "node", "id": 325354706, "lat": 42.3164362, "lon": -71.0930384}, {"type": "node", "id": 325355714, "lat": 42.3174948, "lon": -71.0421602}, {"type": "node", "id": 325356862, "lat": 42.316147, "lon": -71.0879235}, {"type": "node", "id": 325358041, "lat": 42.32755, "lon": -71.0825446}, {"type": "node", "id": 325358765, "lat": 42.3157494, "lon": -71.0876575}, {"type": "node", "id": 325364414, "lat": 42.3173499, "lon": -71.043508}, {"type": "node", "id": 325368751, "lat": 42.3158772, "lon": -71.0879878}, {"type": "node", "id": 325374830, "lat": 42.3379244, "lon": -71.0529348}, {"type": "node", "id": 325377886, "lat": 42.3382632, "lon": -71.0520317}, {"type": "node", "id": 325379191, "lat": 42.2717808, "lon": -71.0913424}, {"type": "node", "id": 325379289, "lat": 42.3154228, "lon": -71.0883171}, {"type": "node", "id": 325381918, "lat": 42.323349, "lon": -71.0582805}, {"type": "node", "id": 325382599, "lat": 42.3125149, "lon": -71.0539544}, {"type": "node", "id": 325382908, "lat": 42.317376, "lon": -71.0428454}, {"type": "node", "id": 325389271, "lat": 42.360744, "lon": -71.0697236}, {"type": "node", "id": 325390551, "lat": 42.3333318, "lon": -71.0397923}, {"type": "node", "id": 325390555, "lat": 42.3333365, "lon": -71.039487}, {"type": "node", "id": 325390557, "lat": 42.3332353, "lon": -71.0394842}, {"type": "node", "id": 325390560, "lat": 42.3332348, "lon": -71.0395164}, {"type": "node", "id": 325390561, "lat": 42.3332018, "lon": -71.0395155}, {"type": "node", "id": 325390976, "lat": 42.3319486, "lon": -71.0303683}, {"type": "node", "id": 325390978, "lat": 42.3320332, "lon": -71.0303704}, {"type": "node", "id": 325390983, "lat": 42.3321864, "lon": -71.0303384}, {"type": "node", "id": 325390985, "lat": 42.3321859, "lon": -71.0303765}, {"type": "node", "id": 325390989, "lat": 42.332275, "lon": -71.0303787}, {"type": "node", "id": 325390991, "lat": 42.3322796, "lon": -71.0300328}, {"type": "node", "id": 325390993, "lat": 42.3321908, "lon": -71.0300307}, {"type": "node", "id": 325390996, "lat": 42.3321902, "lon": -71.03007}, {"type": "node", "id": 325390997, "lat": 42.3320424, "lon": -71.0300664}, {"type": "node", "id": 325390998, "lat": 42.3320429, "lon": -71.0300276}, {"type": "node", "id": 325391000, "lat": 42.3319532, "lon": -71.0300254}, {"type": "node", "id": 325397643, "lat": 42.3177528, "lon": -71.0427713}, {"type": "node", "id": 325404692, "lat": 42.3762546, "lon": -71.0578249}, {"type": "node", "id": 325404694, "lat": 42.3762991, "lon": -71.0579101}, {"type": "node", "id": 325404695, "lat": 42.3763308, "lon": -71.05788}, {"type": "node", "id": 325404696, "lat": 42.3763744, "lon": -71.0579636}, {"type": "node", "id": 325404697, "lat": 42.3763938, "lon": -71.0579453}, {"type": "node", "id": 325404698, "lat": 42.3764414, "lon": -71.0580367}, {"type": "node", "id": 325404699, "lat": 42.376459, "lon": -71.0580201}, {"type": "node", "id": 325404700, "lat": 42.3764815, "lon": -71.0580633}, {"type": "node", "id": 325404702, "lat": 42.3763711, "lon": -71.0581681}, {"type": "node", "id": 325404704, "lat": 42.3764026, "lon": -71.0583045}, {"type": "node", "id": 325404706, "lat": 42.3765248, "lon": -71.0581885}, {"type": "node", "id": 325404708, "lat": 42.3765365, "lon": -71.0582109}, {"type": "node", "id": 325404710, "lat": 42.3767716, "lon": -71.0579879}, {"type": "node", "id": 325404712, "lat": 42.3768068, "lon": -71.0579544}, {"type": "node", "id": 325404714, "lat": 42.3768476, "lon": -71.0580328}, {"type": "node", "id": 325404716, "lat": 42.3770635, "lon": -71.057828}, {"type": "node", "id": 325404718, "lat": 42.3770255, "lon": -71.0577551}, {"type": "node", "id": 325404720, "lat": 42.3771619, "lon": -71.0576256}, {"type": "node", "id": 325404723, "lat": 42.3770614, "lon": -71.0574328}, {"type": "node", "id": 325404726, "lat": 42.3768562, "lon": -71.0576273}, {"type": "node", "id": 325404727, "lat": 42.3768264, "lon": -71.0575701}, {"type": "node", "id": 325404728, "lat": 42.376752, "lon": -71.0576407}, {"type": "node", "id": 325404729, "lat": 42.3767451, "lon": -71.0576276}, {"type": "node", "id": 325404730, "lat": 42.3767632, "lon": -71.0576103}, {"type": "node", "id": 325404732, "lat": 42.3767153, "lon": -71.0575185}, {"type": "node", "id": 325404734, "lat": 42.3766957, "lon": -71.057537}, {"type": "node", "id": 325404736, "lat": 42.3766513, "lon": -71.0574517}, {"type": "node", "id": 325404739, "lat": 42.3766317, "lon": -71.0574704}, {"type": "node", "id": 325404742, "lat": 42.3765874, "lon": -71.0573856}, {"type": "node", "id": 325404744, "lat": 42.3765599, "lon": -71.0574118}, {"type": "node", "id": 325404746, "lat": 42.3765119, "lon": -71.0573197}, {"type": "node", "id": 325404748, "lat": 42.3764948, "lon": -71.0573359}, {"type": "node", "id": 325404750, "lat": 42.3764525, "lon": -71.0572546}, {"type": "node", "id": 325404753, "lat": 42.3763455, "lon": -71.057356}, {"type": "node", "id": 325404754, "lat": 42.3763904, "lon": -71.057442}, {"type": "node", "id": 325404756, "lat": 42.3763664, "lon": -71.0574647}, {"type": "node", "id": 325404757, "lat": 42.3763869, "lon": -71.0575039}, {"type": "node", "id": 325404758, "lat": 42.3763435, "lon": -71.057545}, {"type": "node", "id": 325404759, "lat": 42.3763892, "lon": -71.0576326}, {"type": "node", "id": 325404762, "lat": 42.3762901, "lon": -71.0577266}, {"type": "node", "id": 325404764, "lat": 42.3763127, "lon": -71.0577699}, {"type": "node", "id": 325407140, "lat": 42.371382, "lon": -71.0398936}, {"type": "node", "id": 325407142, "lat": 42.3714773, "lon": -71.0401072}, {"type": "node", "id": 325407144, "lat": 42.3715614, "lon": -71.0400387}, {"type": "node", "id": 325407146, "lat": 42.371632, "lon": -71.0401965}, {"type": "node", "id": 325407290, "lat": 42.3713397, "lon": -71.0376569}, {"type": "node", "id": 325407292, "lat": 42.3714457, "lon": -71.0375362}, {"type": "node", "id": 325411563, "lat": 42.3154653, "lon": -71.0883181}, {"type": "node", "id": 325417273, "lat": 42.3158649, "lon": -71.0929983}, {"type": "node", "id": 325422530, "lat": 42.3174644, "lon": -71.0427143}, {"type": "node", "id": 325422909, "lat": 42.3381301, "lon": -71.053246}, {"type": "node", "id": 325424820, "lat": 42.3161438, "lon": -71.0880221}, {"type": "node", "id": 325427494, "lat": 42.3154219, "lon": -71.0880535}, {"type": "node", "id": 325433305, "lat": 42.3381042, "lon": -71.0524164}, {"type": "node", "id": 325437583, "lat": 42.3382978, "lon": -71.0520501}, {"type": "node", "id": 325438761, "lat": 42.3158371, "lon": -71.0877395}, {"type": "node", "id": 325441388, "lat": 42.3174314, "lon": -71.0433903}, {"type": "node", "id": 325455392, "lat": 42.3154654, "lon": -71.0883432}, {"type": "node", "id": 325458096, "lat": 42.3081067, "lon": -71.1120458}, {"type": "node", "id": 325461983, "lat": 42.3382781, "lon": -71.0530643}, {"type": "node", "id": 325462461, "lat": 42.3174449, "lon": -71.0428589}, {"type": "node", "id": 325465391, "lat": 42.3081136, "lon": -71.1121174}, {"type": "node", "id": 325472033, "lat": 42.3081422, "lon": -71.1121124}, {"type": "node", "id": 325472891, "lat": 42.3160959, "lon": -71.0882148}, {"type": "node", "id": 325476754, "lat": 42.2719853, "lon": -71.0918924}, {"type": "node", "id": 325479871, "lat": 42.3081433, "lon": -71.1121225}, {"type": "node", "id": 325482879, "lat": 42.3380482, "lon": -71.052482}, {"type": "node", "id": 325483604, "lat": 42.3842236, "lon": -70.9989259}, {"type": "node", "id": 325483606, "lat": 42.3842774, "lon": -70.9990752}, {"type": "node", "id": 325483608, "lat": 42.3846431, "lon": -70.9988336}, {"type": "node", "id": 325483610, "lat": 42.3845893, "lon": -70.9986844}, {"type": "node", "id": 325487897, "lat": 42.3081988, "lon": -71.1121127}, {"type": "node", "id": 325497141, "lat": 42.3082022, "lon": -71.1121484}, {"type": "node", "id": 325504020, "lat": 42.3126313, "lon": -71.0538348}, {"type": "node", "id": 325534441, "lat": 42.3157859, "lon": -71.0929761}, {"type": "node", "id": 325544661, "lat": 42.2718231, "lon": -71.091942}, {"type": "node", "id": 325548670, "lat": 42.3126229, "lon": -71.0538822}, {"type": "node", "id": 325559320, "lat": 42.3162695, "lon": -71.0930618}, {"type": "node", "id": 325569955, "lat": 42.2823305, "lon": -71.0877585}, {"type": "node", "id": 325569956, "lat": 42.2824425, "lon": -71.0879343}, {"type": "node", "id": 325569957, "lat": 42.2824668, "lon": -71.0879062}, {"type": "node", "id": 325569958, "lat": 42.2824627, "lon": -71.0878995}, {"type": "node", "id": 325569959, "lat": 42.2825391, "lon": -71.0878112}, {"type": "node", "id": 325569960, "lat": 42.2826611, "lon": -71.088003}, {"type": "node", "id": 325569961, "lat": 42.2826715, "lon": -71.087991}, {"type": "node", "id": 325569963, "lat": 42.282743, "lon": -71.0881033}, {"type": "node", "id": 325569964, "lat": 42.2827986, "lon": -71.0880392}, {"type": "node", "id": 325569965, "lat": 42.2828053, "lon": -71.0880497}, {"type": "node", "id": 325569966, "lat": 42.2828259, "lon": -71.088026}, {"type": "node", "id": 325569967, "lat": 42.2828183, "lon": -71.0880141}, {"type": "node", "id": 325569968, "lat": 42.2828642, "lon": -71.0879612}, {"type": "node", "id": 325569969, "lat": 42.2827776, "lon": -71.0878145}, {"type": "node", "id": 325569970, "lat": 42.282791, "lon": -71.0877991}, {"type": "node", "id": 325569971, "lat": 42.2827246, "lon": -71.0876921}, {"type": "node", "id": 325569972, "lat": 42.2827057, "lon": -71.0877089}, {"type": "node", "id": 325569973, "lat": 42.2826508, "lon": -71.0876241}, {"type": "node", "id": 325569974, "lat": 42.2827004, "lon": -71.087565}, {"type": "node", "id": 325569975, "lat": 42.282678, "lon": -71.0875303}, {"type": "node", "id": 325569976, "lat": 42.2826722, "lon": -71.0875227}, {"type": "node", "id": 325569977, "lat": 42.2826685, "lon": -71.0875185}, {"type": "node", "id": 325569979, "lat": 42.2826646, "lon": -71.0875144}, {"type": "node", "id": 325569980, "lat": 42.2826606, "lon": -71.0875106}, {"type": "node", "id": 325569981, "lat": 42.2826564, "lon": -71.0875073}, {"type": "node", "id": 325569982, "lat": 42.2826521, "lon": -71.087504}, {"type": "node", "id": 325569983, "lat": 42.2826477, "lon": -71.0875013}, {"type": "node", "id": 325569984, "lat": 42.2826432, "lon": -71.0874987}, {"type": "node", "id": 325569985, "lat": 42.2826386, "lon": -71.0874965}, {"type": "node", "id": 325569986, "lat": 42.2826339, "lon": -71.0874947}, {"type": "node", "id": 325569987, "lat": 42.2826291, "lon": -71.0874931}, {"type": "node", "id": 325569988, "lat": 42.2826243, "lon": -71.0874919}, {"type": "node", "id": 325569989, "lat": 42.2826195, "lon": -71.087491}, {"type": "node", "id": 325569990, "lat": 42.2826145, "lon": -71.0874906}, {"type": "node", "id": 325569991, "lat": 42.2826097, "lon": -71.0874903}, {"type": "node", "id": 325569992, "lat": 42.2826048, "lon": -71.0874905}, {"type": "node", "id": 325569993, "lat": 42.2825999, "lon": -71.087491}, {"type": "node", "id": 325569994, "lat": 42.2825951, "lon": -71.0874919}, {"type": "node", "id": 325569996, "lat": 42.2825902, "lon": -71.0874931}, {"type": "node", "id": 325569997, "lat": 42.2825855, "lon": -71.0874946}, {"type": "node", "id": 325569998, "lat": 42.2825808, "lon": -71.0874965}, {"type": "node", "id": 325569999, "lat": 42.2825762, "lon": -71.0874987}, {"type": "node", "id": 325570000, "lat": 42.2825716, "lon": -71.0875013}, {"type": "node", "id": 325570001, "lat": 42.2825672, "lon": -71.0875041}, {"type": "node", "id": 325570002, "lat": 42.2825629, "lon": -71.0875073}, {"type": "node", "id": 325570004, "lat": 42.2823658, "lon": -71.0877348}, {"type": "node", "id": 325570005, "lat": 42.2823596, "lon": -71.087725}, {"type": "node", "id": 325570518, "lat": 42.2823151, "lon": -71.0873336}, {"type": "node", "id": 325570519, "lat": 42.2822331, "lon": -71.0872342}, {"type": "node", "id": 325583180, "lat": 42.272056, "lon": -71.0918793}, {"type": "node", "id": 325583888, "lat": 42.3608465, "lon": -71.0698933}, {"type": "node", "id": 325584062, "lat": 42.272069, "lon": -71.0916114}, {"type": "node", "id": 325584386, "lat": 42.2717551, "lon": -71.0919714}, {"type": "node", "id": 325584710, "lat": 42.2718363, "lon": -71.0916388}, {"type": "node", "id": 325585776, "lat": 42.3124379, "lon": -71.0540424}, {"type": "node", "id": 325589015, "lat": 42.3125867, "lon": -71.0537138}, {"type": "node", "id": 325589381, "lat": 42.3121184, "lon": -71.0542751}, {"type": "node", "id": 325590998, "lat": 42.3230334, "lon": -71.0581236}, {"type": "node", "id": 325594223, "lat": 42.3164264, "lon": -71.092996}, {"type": "node", "id": 325594884, "lat": 42.2716884, "lon": -71.0920056}, {"type": "node", "id": 325595458, "lat": 42.3120709, "lon": -71.053927}, {"type": "node", "id": 325595497, "lat": 42.3159186, "lon": -71.0932511}, {"type": "node", "id": 325595515, "lat": 42.2716118, "lon": -71.0913976}, {"type": "node", "id": 325601259, "lat": 42.3125674, "lon": -71.0537267}, {"type": "node", "id": 325602680, "lat": 42.2718689, "lon": -71.0919251}, {"type": "node", "id": 325609138, "lat": 42.2718459, "lon": -71.0919333}, {"type": "node", "id": 325609140, "lat": 42.3232554, "lon": -71.0579919}, {"type": "node", "id": 325613616, "lat": 42.3125257, "lon": -71.0539838}, {"type": "node", "id": 325618364, "lat": 42.2717106, "lon": -71.0919937}, {"type": "node", "id": 325620013, "lat": 42.2717777, "lon": -71.0919611}, {"type": "node", "id": 325620938, "lat": 42.3165041, "lon": -71.0930099}, {"type": "node", "id": 325621426, "lat": 42.2718003, "lon": -71.0919513}, {"type": "node", "id": 325622279, "lat": 42.3158556, "lon": -71.0932775}, {"type": "node", "id": 325627771, "lat": 42.2716218, "lon": -71.0914535}, {"type": "node", "id": 325630633, "lat": 42.3120162, "lon": -71.0539976}, {"type": "node", "id": 325632978, "lat": 42.2718921, "lon": -71.0919175}, {"type": "node", "id": 325634685, "lat": 42.3164971, "lon": -71.0928005}, {"type": "node", "id": 325637653, "lat": 42.3163693, "lon": -71.0927867}, {"type": "node", "id": 325641092, "lat": 42.3160721, "lon": -71.0931472}, {"type": "node", "id": 325644865, "lat": 42.2719618, "lon": -71.0918979}, {"type": "node", "id": 325646447, "lat": 42.2715875, "lon": -71.0918952}, {"type": "node", "id": 325647573, "lat": 42.2720797, "lon": -71.0918761}, {"type": "node", "id": 325651620, "lat": 42.3163614, "lon": -71.0927524}, {"type": "node", "id": 325652380, "lat": 42.2721214, "lon": -71.0918717}, {"type": "node", "id": 325652728, "lat": 42.3121645, "lon": -71.0541967}, {"type": "node", "id": 325652788, "lat": 42.312081, "lon": -71.0539544}, {"type": "node", "id": 325654895, "lat": 42.2717327, "lon": -71.0919822}, {"type": "node", "id": 325657027, "lat": 42.3121786, "lon": -71.0542349}, {"type": "node", "id": 325657462, "lat": 42.3164401, "lon": -71.0927194}, {"type": "node", "id": 325658369, "lat": 42.316478, "lon": -71.0928965}, {"type": "node", "id": 325661973, "lat": 42.3162777, "lon": -71.0930971}, {"type": "node", "id": 325663217, "lat": 42.3608665, "lon": -71.069979}, {"type": "node", "id": 325663256, "lat": 42.3607452, "lon": -71.0698385}, {"type": "node", "id": 325664332, "lat": 42.323127, "lon": -71.0584122}, {"type": "node", "id": 325664965, "lat": 42.2720088, "lon": -71.0918875}, {"type": "node", "id": 325677011, "lat": 42.3126106, "lon": -71.0538487}, {"type": "node", "id": 325677578, "lat": 42.312357, "lon": -71.0538244}, {"type": "node", "id": 325680314, "lat": 42.3165156, "lon": -71.0928806}, {"type": "node", "id": 325689700, "lat": 42.3160797, "lon": -71.0931801}, {"type": "node", "id": 325689839, "lat": 42.3124296, "lon": -71.0540197}, {"type": "node", "id": 325691375, "lat": 42.2716665, "lon": -71.0920179}, {"type": "node", "id": 325696473, "lat": 42.3158533, "lon": -71.0929479}, {"type": "node", "id": 325697022, "lat": 42.2715141, "lon": -71.0914887}, {"type": "node", "id": 325730106, "lat": 42.3083416, "lon": -71.1121238}, {"type": "node", "id": 325730467, "lat": 42.3385981, "lon": -71.0526974}, {"type": "node", "id": 325732960, "lat": 42.3044013, "lon": -71.0542603}, {"type": "node", "id": 325742882, "lat": 42.3158371, "lon": -71.087724}, {"type": "node", "id": 325743588, "lat": 42.3178111, "lon": -71.0426446}, {"type": "node", "id": 325743974, "lat": 42.3046277, "lon": -71.0542637}, {"type": "node", "id": 325746880, "lat": 42.3472585, "lon": -71.089614}, {"type": "node", "id": 325749049, "lat": 42.3151752, "lon": -71.0884191}, {"type": "node", "id": 325751259, "lat": 42.3083243, "lon": -71.1119456}, {"type": "node", "id": 325752409, "lat": 42.3042365, "lon": -71.05435}, {"type": "node", "id": 325758948, "lat": 42.3157367, "lon": -71.0880668}, {"type": "node", "id": 325760647, "lat": 42.3047116, "lon": -71.0543902}, {"type": "node", "id": 325760891, "lat": 42.3174284, "lon": -71.0428912}, {"type": "node", "id": 325762837, "lat": 42.3043218, "lon": -71.0542846}, {"type": "node", "id": 325763908, "lat": 42.3161794, "lon": -71.0881442}, {"type": "node", "id": 325766820, "lat": 42.3474381, "lon": -71.0897055}, {"type": "node", "id": 325771832, "lat": 42.3081339, "lon": -71.112041}, {"type": "node", "id": 325773597, "lat": 42.3379673, "lon": -71.0524714}, {"type": "node", "id": 325777317, "lat": 42.3152274, "lon": -71.0884582}, {"type": "node", "id": 325779607, "lat": 42.3386522, "lon": -71.0526342}, {"type": "node", "id": 325790099, "lat": 42.3045575, "lon": -71.0544909}, {"type": "node", "id": 325793175, "lat": 42.3044528, "lon": -71.0542278}, {"type": "node", "id": 325794458, "lat": 42.3158762, "lon": -71.0877155}, {"type": "node", "id": 325797265, "lat": 42.3177159, "lon": -71.042737}, {"type": "node", "id": 325803402, "lat": 42.3081834, "lon": -71.1119704}, {"type": "node", "id": 325807444, "lat": 42.3046924, "lon": -71.0542228}, {"type": "node", "id": 325808589, "lat": 42.3172974, "lon": -71.0432611}, {"type": "node", "id": 325823494, "lat": 42.33769, "lon": -71.052571}, {"type": "node", "id": 325829422, "lat": 42.3044572, "lon": -71.0542403}, {"type": "node", "id": 325830966, "lat": 42.3384407, "lon": -71.0523035}, {"type": "node", "id": 325831655, "lat": 42.3043469, "lon": -71.0543566}, {"type": "node", "id": 325834853, "lat": 42.3472479, "lon": -71.0896519}, {"type": "node", "id": 325840372, "lat": 42.3081306, "lon": -71.1120078}, {"type": "node", "id": 325840846, "lat": 42.3155513, "lon": -71.0879833}, {"type": "node", "id": 325852698, "lat": 42.337833, "lon": -71.0524032}, {"type": "node", "id": 325856646, "lat": 42.3159857, "lon": -71.0875838}, {"type": "node", "id": 325858025, "lat": 42.3045975, "lon": -71.0541768}, {"type": "node", "id": 325858480, "lat": 42.3042582, "lon": -71.0544126}, {"type": "node", "id": 325858650, "lat": 42.3174836, "lon": -71.0428946}, {"type": "node", "id": 325858675, "lat": 42.30411, "lon": -71.0544299}, {"type": "node", "id": 325863059, "lat": 42.316017, "lon": -71.0881638}, {"type": "node", "id": 325864192, "lat": 42.3162456, "lon": -71.0875007}, {"type": "node", "id": 325881243, "lat": 42.3378828, "lon": -71.0528714}, {"type": "node", "id": 325888234, "lat": 42.308186, "lon": -71.111998}, {"type": "node", "id": 325890342, "lat": 42.3384525, "lon": -71.0522896}, {"type": "node", "id": 325891357, "lat": 42.3378822, "lon": -71.0521066}, {"type": "node", "id": 325894955, "lat": 42.3172985, "lon": -71.0433427}, {"type": "node", "id": 325895831, "lat": 42.3159638, "lon": -71.0876414}, {"type": "node", "id": 325897580, "lat": 42.3159602, "lon": -71.0880814}, {"type": "node", "id": 325898638, "lat": 42.3162452, "lon": -71.0873794}, {"type": "node", "id": 325902642, "lat": 42.3153394, "lon": -71.0879909}, {"type": "node", "id": 325911158, "lat": 42.3379345, "lon": -71.0528106}, {"type": "node", "id": 325917108, "lat": 42.3378624, "lon": -71.0523687}, {"type": "node", "id": 325923013, "lat": 42.3160014, "lon": -71.0880466}, {"type": "node", "id": 325924708, "lat": 42.3162326, "lon": -71.08759}, {"type": "node", "id": 325925612, "lat": 42.315148, "lon": -71.0881527}, {"type": "node", "id": 325925960, "lat": 42.3161606, "lon": -71.0873153}, {"type": "node", "id": 325933106, "lat": 42.3155537, "lon": -71.0884102}, {"type": "node", "id": 325940586, "lat": 42.3379043, "lon": -71.0523733}, {"type": "node", "id": 325945006, "lat": 42.3173237, "lon": -71.0432872}, {"type": "node", "id": 325945711, "lat": 42.3161814, "lon": -71.0880247}, {"type": "node", "id": 325946328, "lat": 42.3157381, "lon": -71.0882544}, {"type": "node", "id": 325946418, "lat": 42.3162323, "lon": -71.0875003}, {"type": "node", "id": 325950063, "lat": 42.3159852, "lon": -71.0874636}, {"type": "node", "id": 325953475, "lat": 42.3154219, "lon": -71.088068}, {"type": "node", "id": 325958106, "lat": 42.3155652, "lon": -71.0878132}, {"type": "node", "id": 325960745, "lat": 42.3167509, "lon": -71.0433305}, {"type": "node", "id": 325962445, "lat": 42.3176901, "lon": -71.0426472}, {"type": "node", "id": 325962505, "lat": 42.3158773, "lon": -71.0880185}, {"type": "node", "id": 325963097, "lat": 42.3162462, "lon": -71.0876572}, {"type": "node", "id": 325966442, "lat": 42.3380196, "lon": -71.0523216}, {"type": "node", "id": 325967052, "lat": 42.3152717, "lon": -71.088358}, {"type": "node", "id": 325970918, "lat": 42.3154644, "lon": -71.0880566}, {"type": "node", "id": 325977406, "lat": 42.3177298, "lon": -71.0425757}, {"type": "node", "id": 325977577, "lat": 42.3158381, "lon": -71.0880019}, {"type": "node", "id": 325977891, "lat": 42.316246, "lon": -71.0875903}, {"type": "node", "id": 325982967, "lat": 42.327518, "lon": -71.0829294}, {"type": "node", "id": 325983934, "lat": 42.3382827, "lon": -71.0520678}, {"type": "node", "id": 325985953, "lat": 42.3047436, "lon": -71.0543701}, {"type": "node", "id": 325991988, "lat": 42.3153451, "lon": -71.0884129}, {"type": "node", "id": 325993488, "lat": 42.3045221, "lon": -71.0541993}, {"type": "node", "id": 325996636, "lat": 42.3154644, "lon": -71.0880692}, {"type": "node", "id": 326001535, "lat": 42.3277003, "lon": -71.0825501}, {"type": "node", "id": 326002000, "lat": 42.3175256, "lon": -71.0423962}, {"type": "node", "id": 326002897, "lat": 42.315838, "lon": -71.0879849}, {"type": "node", "id": 326003197, "lat": 42.304153, "lon": -71.0547975}, {"type": "node", "id": 326003292, "lat": 42.3474333, "lon": -71.0898614}, {"type": "node", "id": 326007604, "lat": 42.3161552, "lon": -71.0877125}, {"type": "node", "id": 326010635, "lat": 42.3042968, "lon": -71.0547068}, {"type": "node", "id": 326010660, "lat": 42.3381434, "lon": -71.052707}, {"type": "node", "id": 326013567, "lat": 42.3472199, "lon": -71.0897526}, {"type": "node", "id": 326022542, "lat": 42.3717053, "lon": -71.0379265}, {"type": "node", "id": 326022623, "lat": 42.3042877, "lon": -71.054629}, {"type": "node", "id": 326023119, "lat": 42.3045292, "lon": -71.0542199}, {"type": "node", "id": 326031545, "lat": 42.3044855, "lon": -71.0545042}, {"type": "node", "id": 326038712, "lat": 42.3044946, "lon": -71.0545306}, {"type": "node", "id": 326048728, "lat": 42.304394, "lon": -71.0542391}, {"type": "node", "id": 326050562, "lat": 42.3382762, "lon": -71.0520164}, {"type": "node", "id": 326055723, "lat": 42.3472865, "lon": -71.0897866}, {"type": "node", "id": 326055937, "lat": 42.3045643, "lon": -71.0545102}, {"type": "node", "id": 326063728, "lat": 42.3167249, "lon": -71.0434161}, {"type": "node", "id": 326068073, "lat": 42.3155635, "lon": -71.0879909}, {"type": "node", "id": 326069759, "lat": 42.3160268, "lon": -71.0880926}, {"type": "node", "id": 326069772, "lat": 42.317491, "lon": -71.0424593}, {"type": "node", "id": 326071033, "lat": 42.3161711, "lon": -71.0877245}, {"type": "node", "id": 326074698, "lat": 42.3382271, "lon": -71.0526087}, {"type": "node", "id": 326077520, "lat": 42.3380705, "lon": -71.0518861}, {"type": "node", "id": 326150004, "lat": 42.3520886, "lon": -71.1605414}, {"type": "node", "id": 326154738, "lat": 42.352447, "lon": -71.1609162}, {"type": "node", "id": 326155667, "lat": 42.3524688, "lon": -71.1607571}, {"type": "node", "id": 326157542, "lat": 42.3520928, "lon": -71.1605107}, {"type": "node", "id": 326163403, "lat": 42.3047193, "lon": -71.0544125}, {"type": "node", "id": 326164710, "lat": 42.3520248, "lon": -71.1605256}, {"type": "node", "id": 326166392, "lat": 42.3524199, "lon": -71.1610096}, {"type": "node", "id": 326169041, "lat": 42.3828547, "lon": -71.0164853}, {"type": "node", "id": 326174099, "lat": 42.3524331, "lon": -71.1609127}, {"type": "node", "id": 326175651, "lat": 42.3520689, "lon": -71.16063}, {"type": "node", "id": 326180387, "lat": 42.35236, "lon": -71.1608451}, {"type": "node", "id": 326188092, "lat": 42.3518059, "lon": -71.1607011}, {"type": "node", "id": 326192427, "lat": 42.3520509, "lon": -71.160762}, {"type": "node", "id": 326203209, "lat": 42.3521456, "lon": -71.1607916}, {"type": "node", "id": 326207874, "lat": 42.3521637, "lon": -71.1605284}, {"type": "node", "id": 326209070, "lat": 42.3523741, "lon": -71.1607417}, {"type": "node", "id": 326217150, "lat": 42.3521597, "lon": -71.1606884}, {"type": "node", "id": 326218885, "lat": 42.3520975, "lon": -71.1610278}, {"type": "node", "id": 326219784, "lat": 42.352458, "lon": -71.1607545}, {"type": "node", "id": 326222817, "lat": 42.3521105, "lon": -71.1609325}, {"type": "node", "id": 326223939, "lat": 42.3520123, "lon": -71.1606159}, {"type": "node", "id": 326228625, "lat": 42.3521595, "lon": -71.1605591}, {"type": "node", "id": 326230959, "lat": 42.3517722, "lon": -71.1609468}, {"type": "node", "id": 326232729, "lat": 42.3524741, "lon": -71.1606375}, {"type": "node", "id": 326307395, "lat": 42.2822227, "lon": -71.0872132}, {"type": "node", "id": 326307396, "lat": 42.2821607, "lon": -71.0871379}, {"type": "node", "id": 326322626, "lat": 42.3066471, "lon": -71.0815211}, {"type": "node", "id": 326322627, "lat": 42.3069438, "lon": -71.0818694}, {"type": "node", "id": 326322628, "lat": 42.3070628, "lon": -71.081684}, {"type": "node", "id": 326322629, "lat": 42.3069924, "lon": -71.0816014}, {"type": "node", "id": 326322630, "lat": 42.3070039, "lon": -71.0815835}, {"type": "node", "id": 326322631, "lat": 42.3069931, "lon": -71.0815708}, {"type": "node", "id": 326322632, "lat": 42.3075707, "lon": -71.0806709}, {"type": "node", "id": 326322633, "lat": 42.3075581, "lon": -71.080656}, {"type": "node", "id": 326322634, "lat": 42.3075734, "lon": -71.0806321}, {"type": "node", "id": 326322635, "lat": 42.3074677, "lon": -71.080508}, {"type": "node", "id": 326322636, "lat": 42.307437, "lon": -71.0805558}, {"type": "node", "id": 326322638, "lat": 42.3073116, "lon": -71.0804086}, {"type": "node", "id": 326322639, "lat": 42.3073317, "lon": -71.0803773}, {"type": "node", "id": 326322640, "lat": 42.3072767, "lon": -71.0803127}, {"type": "node", "id": 326322641, "lat": 42.3072578, "lon": -71.0803421}, {"type": "node", "id": 326322642, "lat": 42.3072437, "lon": -71.0803256}, {"type": "node", "id": 326322644, "lat": 42.3070903, "lon": -71.0805644}, {"type": "node", "id": 326322645, "lat": 42.3071185, "lon": -71.0805975}, {"type": "node", "id": 326322646, "lat": 42.3070986, "lon": -71.0806285}, {"type": "node", "id": 326322647, "lat": 42.3071447, "lon": -71.0806827}, {"type": "node", "id": 326322648, "lat": 42.3071639, "lon": -71.0806529}, {"type": "node", "id": 326322650, "lat": 42.3072535, "lon": -71.0807581}, {"type": "node", "id": 326322651, "lat": 42.307225, "lon": -71.0808025}, {"type": "node", "id": 326322652, "lat": 42.307239, "lon": -71.0808189}, {"type": "node", "id": 326322653, "lat": 42.3070822, "lon": -71.0810633}, {"type": "node", "id": 326322654, "lat": 42.3070663, "lon": -71.0810447}, {"type": "node", "id": 326322655, "lat": 42.3069981, "lon": -71.081151}, {"type": "node", "id": 326322656, "lat": 42.3070157, "lon": -71.0811716}, {"type": "node", "id": 326322657, "lat": 42.306858, "lon": -71.0814172}, {"type": "node", "id": 326322658, "lat": 42.306842, "lon": -71.0813984}, {"type": "node", "id": 326322659, "lat": 42.3068329, "lon": -71.0814127}, {"type": "node", "id": 326322660, "lat": 42.3067666, "lon": -71.0813349}, {"type": "node", "id": 326326518, "lat": 42.331463, "lon": -71.0899379}, {"type": "node", "id": 326326519, "lat": 42.3315036, "lon": -71.0900332}, {"type": "node", "id": 326326520, "lat": 42.3314803, "lon": -71.0901777}, {"type": "node", "id": 326326521, "lat": 42.3314141, "lon": -71.0902293}, {"type": "node", "id": 326326522, "lat": 42.3316204, "lon": -71.090713}, {"type": "node", "id": 326326523, "lat": 42.3315559, "lon": -71.0907634}, {"type": "node", "id": 326326524, "lat": 42.3318017, "lon": -71.0913399}, {"type": "node", "id": 326326525, "lat": 42.3317376, "lon": -71.0913899}, {"type": "node", "id": 326326527, "lat": 42.3315822, "lon": -71.0916399}, {"type": "node", "id": 326326528, "lat": 42.3317897, "lon": -71.0921264}, {"type": "node", "id": 326326529, "lat": 42.3321915, "lon": -71.0918128}, {"type": "node", "id": 326326530, "lat": 42.3321098, "lon": -71.0916211}, {"type": "node", "id": 326326531, "lat": 42.3325632, "lon": -71.0912673}, {"type": "node", "id": 326326532, "lat": 42.331863, "lon": -71.0896256}, {"type": "node", "id": 326326533, "lat": 42.3316646, "lon": -71.0897804}, {"type": "node", "id": 326391968, "lat": 42.3653207, "lon": -71.0347861}, {"type": "node", "id": 326391969, "lat": 42.3655187, "lon": -71.03526}, {"type": "node", "id": 326391970, "lat": 42.3657355, "lon": -71.0350954}, {"type": "node", "id": 326391971, "lat": 42.3655376, "lon": -71.0346214}, {"type": "node", "id": 326397583, "lat": 42.3886353, "lon": -71.0045598}, {"type": "node", "id": 326397588, "lat": 42.3885733, "lon": -71.0040463}, {"type": "node", "id": 326405036, "lat": 42.3783606, "lon": -71.0268465}, {"type": "node", "id": 326405218, "lat": 42.3786634, "lon": -71.0428103}, {"type": "node", "id": 326405221, "lat": 42.3787113, "lon": -71.0409051}, {"type": "node", "id": 326405222, "lat": 42.3786683, "lon": -71.0417495}, {"type": "node", "id": 326405223, "lat": 42.3787173, "lon": -71.041754}, {"type": "node", "id": 326512104, "lat": 42.3451188, "lon": -71.1602346}, {"type": "node", "id": 326512105, "lat": 42.3455038, "lon": -71.1603003}, {"type": "node", "id": 326512106, "lat": 42.3454805, "lon": -71.1605497}, {"type": "node", "id": 326512107, "lat": 42.3452857, "lon": -71.1605165}, {"type": "node", "id": 326512108, "lat": 42.3452646, "lon": -71.1607428}, {"type": "node", "id": 326512109, "lat": 42.3456835, "lon": -71.1608143}, {"type": "node", "id": 326512110, "lat": 42.3457045, "lon": -71.1605902}, {"type": "node", "id": 326512111, "lat": 42.3456268, "lon": -71.1605769}, {"type": "node", "id": 326512112, "lat": 42.345653, "lon": -71.1602961}, {"type": "node", "id": 326512113, "lat": 42.3456707, "lon": -71.1602992}, {"type": "node", "id": 326512114, "lat": 42.3456819, "lon": -71.1601796}, {"type": "node", "id": 326512115, "lat": 42.3456644, "lon": -71.1601767}, {"type": "node", "id": 326512116, "lat": 42.345693, "lon": -71.1598698}, {"type": "node", "id": 326512117, "lat": 42.3457737, "lon": -71.1598835}, {"type": "node", "id": 326512118, "lat": 42.3457944, "lon": -71.1596612}, {"type": "node", "id": 326512119, "lat": 42.3453702, "lon": -71.1595888}, {"type": "node", "id": 326512120, "lat": 42.3453495, "lon": -71.1598099}, {"type": "node", "id": 326512121, "lat": 42.3455445, "lon": -71.1598432}, {"type": "node", "id": 326512122, "lat": 42.3455196, "lon": -71.1601102}, {"type": "node", "id": 326512123, "lat": 42.3451365, "lon": -71.1600447}, {"type": "node", "id": 326655958, "lat": 42.3203873, "lon": -71.0582326}, {"type": "node", "id": 326668713, "lat": 42.3441816, "lon": -71.0742815}, {"type": "node", "id": 327054013, "lat": 42.3440767, "lon": -71.0738581}, {"type": "node", "id": 327056016, "lat": 42.3204242, "lon": -71.0581179}, {"type": "node", "id": 327061125, "lat": 42.3439889, "lon": -71.0741874}, {"type": "node", "id": 327063934, "lat": 42.3441024, "lon": -71.0726783}, {"type": "node", "id": 327064901, "lat": 42.3444591, "lon": -71.0727938}, {"type": "node", "id": 327065111, "lat": 42.3205456, "lon": -71.0578327}, {"type": "node", "id": 327069257, "lat": 42.3205189, "lon": -71.0578169}, {"type": "node", "id": 327070323, "lat": 42.3441516, "lon": -71.0738947}, {"type": "node", "id": 327074812, "lat": 42.3205559, "lon": -71.0577017}, {"type": "node", "id": 327075687, "lat": 42.3443234, "lon": -71.0739947}, {"type": "node", "id": 327080877, "lat": 42.3445964, "lon": -71.0728609}, {"type": "node", "id": 327091117, "lat": 42.3441719, "lon": -71.0727122}, {"type": "node", "id": 327093768, "lat": 42.3207871, "lon": -71.0578377}, {"type": "node", "id": 327154679, "lat": 42.3443054, "lon": -71.0739859}, {"type": "node", "id": 327159762, "lat": 42.3207507, "lon": -71.0579509}, {"type": "node", "id": 327165967, "lat": 42.3440006, "lon": -71.0733953}, {"type": "node", "id": 327166533, "lat": 42.3441821, "lon": -71.072813}, {"type": "node", "id": 327167279, "lat": 42.3207166, "lon": -71.0579309}, {"type": "node", "id": 327168905, "lat": 42.3204491, "lon": -71.0581326}, {"type": "node", "id": 327173785, "lat": 42.3441493, "lon": -71.072797}, {"type": "node", "id": 327174365, "lat": 42.344025, "lon": -71.073304}, {"type": "node", "id": 327183574, "lat": 42.3206939, "lon": -71.0580016}, {"type": "node", "id": 327189044, "lat": 42.3206414, "lon": -71.0579707}, {"type": "node", "id": 327198168, "lat": 42.3205677, "lon": -71.0581998}, {"type": "node", "id": 327199075, "lat": 42.3443535, "lon": -71.0731382}, {"type": "node", "id": 327199095, "lat": 42.3439214, "lon": -71.0733567}, {"type": "node", "id": 327210744, "lat": 42.3206526, "lon": -71.0582497}, {"type": "node", "id": 327211873, "lat": 42.3440478, "lon": -71.0733152}, {"type": "node", "id": 327219322, "lat": 42.320615, "lon": -71.0583666}, {"type": "node", "id": 327264131, "lat": 42.3202409, "lon": -71.0074586}, {"type": "node", "id": 327264243, "lat": 42.3131264, "lon": -71.0167413}, {"type": "node", "id": 327264623, "lat": 42.3095696, "lon": -71.0146418}, {"type": "node", "id": 327264714, "lat": 42.3136497, "lon": -71.0139847}, {"type": "node", "id": 327265483, "lat": 42.3105586, "lon": -71.0105841}, {"type": "node", "id": 327265500, "lat": 42.3142605, "lon": -71.0119121}, {"type": "node", "id": 327265537, "lat": 42.3110599, "lon": -71.0139035}, {"type": "node", "id": 327266135, "lat": 42.3102656, "lon": -71.0135299}, {"type": "node", "id": 327266145, "lat": 42.2609464, "lon": -71.1078856}, {"type": "node", "id": 327266152, "lat": 42.3098857, "lon": -71.014716}, {"type": "node", "id": 327266746, "lat": 42.3207013, "lon": -70.9994234}, {"type": "node", "id": 327266839, "lat": 42.309396, "lon": -71.0113737}, {"type": "node", "id": 327266845, "lat": 42.3175971, "lon": -71.0100121}, {"type": "node", "id": 327267255, "lat": 42.3102803, "lon": -71.0146483}, {"type": "node", "id": 327267692, "lat": 42.3197711, "lon": -71.0023853}, {"type": "node", "id": 327267778, "lat": 42.3141544, "lon": -71.0133004}, {"type": "node", "id": 327268596, "lat": 42.3117634, "lon": -71.0161826}, {"type": "node", "id": 327268748, "lat": 42.3134342, "lon": -71.0081438}, {"type": "node", "id": 327269028, "lat": 42.2610201, "lon": -71.1059002}, {"type": "node", "id": 327269615, "lat": 42.3145865, "lon": -71.0069454}, {"type": "node", "id": 327270106, "lat": 42.3134929, "lon": -71.0126956}, {"type": "node", "id": 327270340, "lat": 42.3213538, "lon": -71.0030101}, {"type": "node", "id": 327270599, "lat": 42.3131109, "lon": -71.0154864}, {"type": "node", "id": 327271309, "lat": 42.312941, "lon": -71.011405}, {"type": "node", "id": 327271565, "lat": 42.3111988, "lon": -71.0130941}, {"type": "node", "id": 327271571, "lat": 42.3098217, "lon": -71.0125173}, {"type": "node", "id": 327271796, "lat": 42.3122592, "lon": -71.0170258}, {"type": "node", "id": 327271843, "lat": 42.3146415, "lon": -71.0129784}, {"type": "node", "id": 327272534, "lat": 42.3188643, "lon": -71.0092476}, {"type": "node", "id": 327272763, "lat": 42.3187267, "lon": -71.0094402}, {"type": "node", "id": 327272882, "lat": 42.2609179, "lon": -71.1064399}, {"type": "node", "id": 327273204, "lat": 42.3174316, "lon": -71.0054147}, {"type": "node", "id": 327273516, "lat": 42.3153696, "lon": -71.012951}, {"type": "node", "id": 327274155, "lat": 42.3096735, "lon": -71.0123313}, {"type": "node", "id": 327274476, "lat": 42.3102798, "lon": -71.0149185}, {"type": "node", "id": 327275195, "lat": 42.321179, "lon": -71.0042704}, {"type": "node", "id": 327275400, "lat": 42.313894, "lon": -71.0072507}, {"type": "node", "id": 327275563, "lat": 42.313511, "lon": -71.0123021}, {"type": "node", "id": 327275698, "lat": 42.3097381, "lon": -71.0130379}, {"type": "node", "id": 327275944, "lat": 42.3190301, "lon": -70.999874}, {"type": "node", "id": 327275958, "lat": 42.3122198, "lon": -71.0091875}, {"type": "node", "id": 327276163, "lat": 42.3140395, "lon": -71.0162082}, {"type": "node", "id": 327276175, "lat": 42.3121507, "lon": -71.0118488}, {"type": "node", "id": 327276867, "lat": 42.3137361, "lon": -71.0139003}, {"type": "node", "id": 327277589, "lat": 42.3138764, "lon": -71.0164572}, {"type": "node", "id": 327277606, "lat": 42.3094875, "lon": -71.0113277}, {"type": "node", "id": 327277897, "lat": 42.3140721, "lon": -71.0119422}, {"type": "node", "id": 327279159, "lat": 42.3208412, "lon": -70.9994971}, {"type": "node", "id": 327279371, "lat": 42.3095366, "lon": -71.0121688}, {"type": "node", "id": 327280036, "lat": 42.3101574, "lon": -71.0132593}, {"type": "node", "id": 327280519, "lat": 42.2611295, "lon": -71.10821}, {"type": "node", "id": 327281166, "lat": 42.3142403, "lon": -71.0133856}, {"type": "node", "id": 327281379, "lat": 42.3102808, "lon": -71.0144711}, {"type": "node", "id": 327281396, "lat": 42.3134242, "lon": -71.0126645}, {"type": "node", "id": 327281425, "lat": 42.3173907, "lon": -71.0101449}, {"type": "node", "id": 327281919, "lat": 42.3150269, "lon": -71.0068933}, {"type": "node", "id": 327282107, "lat": 42.3108265, "lon": -71.0133932}, {"type": "node", "id": 327282674, "lat": 42.3107012, "lon": -71.010531}, {"type": "node", "id": 327282875, "lat": 42.3118664, "lon": -71.016214}, {"type": "node", "id": 327282992, "lat": 42.3135781, "lon": -71.0078668}, {"type": "node", "id": 327283477, "lat": 42.3198221, "lon": -71.0018319}, {"type": "node", "id": 327283561, "lat": 42.3095353, "lon": -71.0145814}, {"type": "node", "id": 327283595, "lat": 42.3129272, "lon": -71.0171028}, {"type": "node", "id": 327283770, "lat": 42.3128555, "lon": -71.0112579}, {"type": "node", "id": 327284049, "lat": 42.3127769, "lon": -71.011151}, {"type": "node", "id": 327284383, "lat": 42.3146302, "lon": -71.0128396}, {"type": "node", "id": 327284506, "lat": 42.3119671, "lon": -71.0171245}, {"type": "node", "id": 327284710, "lat": 42.3197916, "lon": -70.9997119}, {"type": "node", "id": 327285191, "lat": 42.3087339, "lon": -71.0116192}, {"type": "node", "id": 327285563, "lat": 42.3213277, "lon": -71.0036079}, {"type": "node", "id": 327285830, "lat": 42.3122073, "lon": -71.0171026}, {"type": "node", "id": 327286039, "lat": 42.3131709, "lon": -71.0151033}, {"type": "node", "id": 327286301, "lat": 42.3096808, "lon": -71.0137831}, {"type": "node", "id": 327286508, "lat": 42.3186473, "lon": -71.0094665}, {"type": "node", "id": 327286538, "lat": 42.2608352, "lon": -71.1071039}, {"type": "node", "id": 327286829, "lat": 42.3102859, "lon": -71.0147794}, {"type": "node", "id": 327287253, "lat": 42.3150628, "lon": -71.0136051}, {"type": "node", "id": 327287474, "lat": 42.3139852, "lon": -71.0072667}, {"type": "node", "id": 327287633, "lat": 42.3135792, "lon": -71.0123335}, {"type": "node", "id": 327287833, "lat": 42.3096862, "lon": -71.0134572}, {"type": "node", "id": 327288110, "lat": 42.3125062, "lon": -71.0089112}, {"type": "node", "id": 327288152, "lat": 42.3190638, "lon": -70.9997396}, {"type": "node", "id": 327288757, "lat": 42.3176379, "lon": -71.0053691}, {"type": "node", "id": 327288914, "lat": 42.3120242, "lon": -71.0121415}, {"type": "node", "id": 327289064, "lat": 42.3210439, "lon": -71.0051866}, {"type": "node", "id": 327289574, "lat": 42.3119782, "lon": -71.0123032}, {"type": "node", "id": 327290358, "lat": 42.3154903, "lon": -71.0889721}, {"type": "node", "id": 327290435, "lat": 42.2608453, "lon": -71.107596}, {"type": "node", "id": 327290798, "lat": 42.3136468, "lon": -71.0167223}, {"type": "node", "id": 327290918, "lat": 42.3095847, "lon": -71.011305}, {"type": "node", "id": 327290991, "lat": 42.3131872, "lon": -71.0167139}, {"type": "node", "id": 327291613, "lat": 42.3191383, "lon": -70.9996809}, {"type": "node", "id": 327291946, "lat": 42.3138214, "lon": -71.0138619}, {"type": "node", "id": 327292172, "lat": 42.309457, "lon": -71.012099}, {"type": "node", "id": 327292643, "lat": 42.3142855, "lon": -71.0133492}, {"type": "node", "id": 327292851, "lat": 42.3119465, "lon": -71.0162528}, {"type": "node", "id": 327292933, "lat": 42.3136696, "lon": -71.0077975}, {"type": "node", "id": 327292971, "lat": 42.3094333, "lon": -71.0143848}, {"type": "node", "id": 327293136, "lat": 42.2714693, "lon": -71.1626339}, {"type": "node", "id": 327293452, "lat": 42.3096544, "lon": -71.0138779}, {"type": "node", "id": 327293559, "lat": 42.3155188, "lon": -71.0068027}, {"type": "node", "id": 327293615, "lat": 42.3210346, "lon": -70.9998522}, {"type": "node", "id": 327294005, "lat": 42.3133158, "lon": -71.0125868}, {"type": "node", "id": 327294316, "lat": 42.3102927, "lon": -71.0143629}, {"type": "node", "id": 327294413, "lat": 42.3172115, "lon": -71.0102922}, {"type": "node", "id": 327294512, "lat": 42.3199857, "lon": -71.0077533}, {"type": "node", "id": 327294804, "lat": 42.3197683, "lon": -71.0014031}, {"type": "node", "id": 327295111, "lat": 42.310792, "lon": -71.0134858}, {"type": "node", "id": 327295365, "lat": 42.3108961, "lon": -71.010447}, {"type": "node", "id": 327295503, "lat": 42.3144594, "lon": -71.0126383}, {"type": "node", "id": 327295531, "lat": 42.3145279, "lon": -71.0127079}, {"type": "node", "id": 327295779, "lat": 42.3121694, "lon": -71.0171592}, {"type": "node", "id": 327296064, "lat": 42.3196758, "lon": -71.0011687}, {"type": "node", "id": 327296594, "lat": 42.3116529, "lon": -71.0169458}, {"type": "node", "id": 327296689, "lat": 42.3127757, "lon": -71.0111493}, {"type": "node", "id": 327297316, "lat": 42.3137846, "lon": -71.0127046}, {"type": "node", "id": 327297381, "lat": 42.312769, "lon": -71.0170498}, {"type": "node", "id": 327297626, "lat": 42.3087462, "lon": -71.0115534}, {"type": "node", "id": 327298098, "lat": 42.309931, "lon": -71.0147932}, {"type": "node", "id": 327298298, "lat": 42.32071, "lon": -71.0064842}, {"type": "node", "id": 327298412, "lat": 42.3136246, "lon": -71.0124339}, {"type": "node", "id": 327298525, "lat": 42.3140595, "lon": -71.0072826}, {"type": "node", "id": 327298683, "lat": 42.3096939, "lon": -71.0136875}, {"type": "node", "id": 327298805, "lat": 42.3186121, "lon": -71.0094782}, {"type": "node", "id": 327298965, "lat": 42.3126784, "lon": -71.0087653}, {"type": "node", "id": 327299684, "lat": 42.3179299, "lon": -71.0051083}, {"type": "node", "id": 327299850, "lat": 42.3148373, "lon": -71.0141714}, {"type": "node", "id": 327299986, "lat": 42.320037, "lon": -70.9996628}, {"type": "node", "id": 327300051, "lat": 42.3110483, "lon": -71.0164801}, {"type": "node", "id": 327300264, "lat": 42.3138201, "lon": -71.0119643}, {"type": "node", "id": 327300713, "lat": 42.3110873, "lon": -71.0142664}, {"type": "node", "id": 327301000, "lat": 42.3093647, "lon": -71.0120298}, {"type": "node", "id": 327301710, "lat": 42.3119382, "lon": -71.0124343}, {"type": "node", "id": 327302050, "lat": 42.3183312, "lon": -71.0047166}, {"type": "node", "id": 327302129, "lat": 42.2610031, "lon": -71.1080095}, {"type": "node", "id": 327302465, "lat": 42.3138503, "lon": -71.0137773}, {"type": "node", "id": 327374702, "lat": 42.3441248, "lon": -71.0730265}, {"type": "node", "id": 327403704, "lat": 42.2915421, "lon": -71.0801213}, {"type": "node", "id": 327567574, "lat": 42.3485969, "lon": -71.0683113}, {"type": "node", "id": 327567646, "lat": 42.3205811, "lon": -71.0869295}, {"type": "node", "id": 327569152, "lat": 42.3209652, "lon": -71.086745}, {"type": "node", "id": 327582121, "lat": 42.3487854, "lon": -71.0681555}, {"type": "node", "id": 327583220, "lat": 42.3210311, "lon": -71.0868752}, {"type": "node", "id": 327600059, "lat": 42.3210546, "lon": -71.0868535}, {"type": "node", "id": 327612753, "lat": 42.3210964, "lon": -71.0869362}, {"type": "node", "id": 327612905, "lat": 42.3206215, "lon": -71.0870096}, {"type": "node", "id": 327615413, "lat": 42.3486544, "lon": -71.0682094}, {"type": "node", "id": 327633112, "lat": 42.3486381, "lon": -71.0680033}, {"type": "node", "id": 327637803, "lat": 42.3208496, "lon": -71.0871418}, {"type": "node", "id": 327638024, "lat": 42.3134218, "lon": -71.0168844}, {"type": "node", "id": 327638135, "lat": 42.3133004, "lon": -71.0166832}, {"type": "node", "id": 327638520, "lat": 42.3141452, "lon": -71.0073213}, {"type": "node", "id": 327638774, "lat": 42.32116, "lon": -71.000092}, {"type": "node", "id": 327638858, "lat": 42.3157992, "lon": -71.0067191}, {"type": "node", "id": 327638958, "lat": 42.3107344, "lon": -71.013686}, {"type": "node", "id": 327639037, "lat": 42.3110108, "lon": -71.0104011}, {"type": "node", "id": 327639155, "lat": 42.3132417, "lon": -71.0124861}, {"type": "node", "id": 327639629, "lat": 42.3136929, "lon": -71.0075971}, {"type": "node", "id": 327639787, "lat": 42.2716796, "lon": -71.1631567}, {"type": "node", "id": 327639904, "lat": 42.3192146, "lon": -70.9996215}, {"type": "node", "id": 327639929, "lat": 42.3096243, "lon": -71.0139821}, {"type": "node", "id": 327640002, "lat": 42.312003, "lon": -71.0162403}, {"type": "node", "id": 327640599, "lat": 42.3144196, "lon": -71.0125377}, {"type": "node", "id": 327640637, "lat": 42.3097107, "lon": -71.0112592}, {"type": "node", "id": 327640735, "lat": 42.3102983, "lon": -71.0142243}, {"type": "node", "id": 327640906, "lat": 42.3169801, "lon": -71.0104816}, {"type": "node", "id": 327640988, "lat": 42.3197186, "lon": -71.0081019}, {"type": "node", "id": 327641237, "lat": 42.2609732, "lon": -71.1061562}, {"type": "node", "id": 327641455, "lat": 42.3088999, "lon": -71.0114442}, {"type": "node", "id": 327641669, "lat": 42.3113508, "lon": -71.0166976}, {"type": "node", "id": 327642370, "lat": 42.3146874, "lon": -71.0883544}, {"type": "node", "id": 327642485, "lat": 42.3139094, "lon": -71.0129829}, {"type": "node", "id": 327642609, "lat": 42.316034, "lon": -71.0066124}, {"type": "node", "id": 327642714, "lat": 42.3123423, "lon": -71.0165489}, {"type": "node", "id": 327643038, "lat": 42.2608895, "lon": -71.1066894}, {"type": "node", "id": 327643111, "lat": 42.3127014, "lon": -71.011149}, {"type": "node", "id": 327643662, "lat": 42.3137159, "lon": -71.0125808}, {"type": "node", "id": 327643738, "lat": 42.3137372, "lon": -71.0133832}, {"type": "node", "id": 327643784, "lat": 42.3194923, "lon": -71.0009127}, {"type": "node", "id": 327644075, "lat": 42.310089, "lon": -71.0131741}, {"type": "node", "id": 327644270, "lat": 42.3127984, "lon": -71.0086963}, {"type": "node", "id": 327644540, "lat": 42.3111551, "lon": -71.0145904}, {"type": "node", "id": 327644730, "lat": 42.3099882, "lon": -71.0148708}, {"type": "node", "id": 327645183, "lat": 42.3132939, "lon": -71.0147314}, {"type": "node", "id": 327645237, "lat": 42.3107852, "lon": -71.0162937}, {"type": "node", "id": 327645446, "lat": 42.313557, "lon": -71.0120015}, {"type": "node", "id": 327645522, "lat": 42.3185257, "lon": -71.0094588}, {"type": "node", "id": 327646414, "lat": 42.3147047, "lon": -71.0146073}, {"type": "node", "id": 327646515, "lat": 42.3202542, "lon": -70.9995429}, {"type": "node", "id": 327646616, "lat": 42.3142975, "lon": -71.0133395}, {"type": "node", "id": 327646784, "lat": 42.3103101, "lon": -71.0140929}, {"type": "node", "id": 327646981, "lat": 42.3145153, "lon": -71.0151691}, {"type": "node", "id": 327647047, "lat": 42.3187433, "lon": -71.0043788}, {"type": "node", "id": 327647124, "lat": 42.3121974, "lon": -71.0165606}, {"type": "node", "id": 327647718, "lat": 42.3092311, "lon": -71.0119529}, {"type": "node", "id": 327647823, "lat": 42.3120151, "lon": -71.0162375}, {"type": "node", "id": 327648042, "lat": 42.2720004, "lon": -71.1635576}, {"type": "node", "id": 327648059, "lat": 42.3129589, "lon": -71.0085891}, {"type": "node", "id": 327648074, "lat": 42.3131731, "lon": -71.0123702}, {"type": "node", "id": 327648267, "lat": 42.3142651, "lon": -71.0073297}, {"type": "node", "id": 327649081, "lat": 42.3194437, "lon": -71.008417}, {"type": "node", "id": 327649088, "lat": 42.313278, "lon": -71.0165749}, {"type": "node", "id": 327649312, "lat": 42.3137996, "lon": -71.0134686}, {"type": "node", "id": 327649318, "lat": 42.3192883, "lon": -70.9996014}, {"type": "node", "id": 327649347, "lat": 42.3107166, "lon": -71.013902}, {"type": "node", "id": 327649818, "lat": 42.3111479, "lon": -71.0103555}, {"type": "node", "id": 327649912, "lat": 42.3143682, "lon": -71.0123679}, {"type": "node", "id": 327650386, "lat": 42.3096356, "lon": -71.0141362}, {"type": "node", "id": 327650730, "lat": 42.3212899, "lon": -71.0008564}, {"type": "node", "id": 327650798, "lat": 42.3132389, "lon": -71.0162123}, {"type": "node", "id": 327651174, "lat": 42.3098424, "lon": -71.0111442}, {"type": "node", "id": 327651736, "lat": 42.3089551, "lon": -71.0114334}, {"type": "node", "id": 327651835, "lat": 42.313978, "lon": -71.0130912}, {"type": "node", "id": 327652027, "lat": 42.3162628, "lon": -71.0064358}, {"type": "node", "id": 327652433, "lat": 42.3135675, "lon": -71.0074808}, {"type": "node", "id": 327652598, "lat": 42.2610318, "lon": -71.1057217}, {"type": "node", "id": 327652748, "lat": 42.3101533, "lon": -71.0151723}, {"type": "node", "id": 327653121, "lat": 42.3136464, "lon": -71.0130588}, {"type": "node", "id": 327653308, "lat": 42.3093898, "lon": -71.0140272}, {"type": "node", "id": 327653389, "lat": 42.3192898, "lon": -71.0007917}, {"type": "node", "id": 327653564, "lat": 42.3126155, "lon": -71.0111874}, {"type": "node", "id": 327653916, "lat": 42.3133457, "lon": -71.0146003}, {"type": "node", "id": 327654098, "lat": 42.3105112, "lon": -71.0161539}, {"type": "node", "id": 327654107, "lat": 42.3123662, "lon": -71.016275}, {"type": "node", "id": 327654372, "lat": 42.3100665, "lon": -71.0130503}, {"type": "node", "id": 327654427, "lat": 42.3134301, "lon": -71.0120269}, {"type": "node", "id": 327654552, "lat": 42.3112518, "lon": -71.014838}, {"type": "node", "id": 327654623, "lat": 42.3118462, "lon": -71.0126264}, {"type": "node", "id": 327654748, "lat": 42.3143433, "lon": -71.0132549}, {"type": "node", "id": 327655121, "lat": 42.3183667, "lon": -71.0095112}, {"type": "node", "id": 327655157, "lat": 42.2608149, "lon": -71.1072766}, {"type": "node", "id": 327655286, "lat": 42.3203961, "lon": -70.9994809}, {"type": "node", "id": 327656140, "lat": 42.3103625, "lon": -71.0138387}, {"type": "node", "id": 327656243, "lat": 42.3142764, "lon": -71.015666}, {"type": "node", "id": 327656293, "lat": 42.3132818, "lon": -71.0122704}, {"type": "node", "id": 327656550, "lat": 42.3142669, "lon": -71.0073235}, {"type": "node", "id": 327657167, "lat": 42.3131473, "lon": -71.0085743}, {"type": "node", "id": 327657404, "lat": 42.3102263, "lon": -71.0158283}, {"type": "node", "id": 327657458, "lat": 42.3190818, "lon": -71.0039406}, {"type": "node", "id": 327657510, "lat": 42.2723673, "lon": -71.1630035}, {"type": "node", "id": 327657556, "lat": 42.3120278, "lon": -71.0162521}, {"type": "node", "id": 327657724, "lat": 42.3131911, "lon": -71.0170419}, {"type": "node", "id": 327657816, "lat": 42.3334848, "lon": -71.0984398}, {"type": "node", "id": 327658034, "lat": 42.3101288, "lon": -71.0108831}, {"type": "node", "id": 327658107, "lat": 42.3192083, "lon": -71.0087709}, {"type": "node", "id": 327658110, "lat": 42.3143401, "lon": -71.0122441}, {"type": "node", "id": 327658251, "lat": 42.3132782, "lon": -71.0164594}, {"type": "node", "id": 327658462, "lat": 42.3107854, "lon": -71.0139255}, {"type": "node", "id": 327658635, "lat": 42.3213853, "lon": -71.0018289}, {"type": "node", "id": 327658930, "lat": 42.3131818, "lon": -71.0160345}, {"type": "node", "id": 327659068, "lat": 42.3149668, "lon": -71.0892263}, {"type": "node", "id": 327659201, "lat": 42.3090937, "lon": -71.011896}, {"type": "node", "id": 327659895, "lat": 42.3096805, "lon": -71.0142523}, {"type": "node", "id": 327660122, "lat": 42.3167622, "lon": -71.0107352}, {"type": "node", "id": 327660282, "lat": 42.3136249, "lon": -71.0072266}, {"type": "node", "id": 327660425, "lat": 42.2610332, "lon": -71.1055909}, {"type": "node", "id": 327660603, "lat": 42.3102161, "lon": -71.015142}, {"type": "node", "id": 327660920, "lat": 42.3135954, "lon": -71.0128503}, {"type": "node", "id": 327660955, "lat": 42.3090237, "lon": -71.011418}, {"type": "node", "id": 327661336, "lat": 42.3190764, "lon": -71.0005092}, {"type": "node", "id": 327661469, "lat": 42.3136189, "lon": -71.007535}, {"type": "node", "id": 327661525, "lat": 42.3114916, "lon": -71.0099636}, {"type": "node", "id": 327661538, "lat": 42.3114112, "lon": -71.0152937}, {"type": "node", "id": 327661652, "lat": 42.3093887, "lon": -71.0137282}, {"type": "node", "id": 327661842, "lat": 42.3166237, "lon": -71.0060979}, {"type": "node", "id": 327662709, "lat": 42.3134147, "lon": -71.0144157}, {"type": "node", "id": 327663045, "lat": 42.3133686, "lon": -71.0120393}, {"type": "node", "id": 327663169, "lat": 42.3114625, "lon": -71.012779}, {"type": "node", "id": 327663186, "lat": 42.3125181, "lon": -71.0112948}, {"type": "node", "id": 327663786, "lat": 42.3144755, "lon": -71.0131086}, {"type": "node", "id": 327664394, "lat": 42.3130089, "lon": -71.0166588}, {"type": "node", "id": 327664968, "lat": 42.3204937, "lon": -70.9994121}, {"type": "node", "id": 327665172, "lat": 42.31001, "lon": -71.0128651}, {"type": "node", "id": 327665663, "lat": 42.3122085, "lon": -71.0167323}, {"type": "node", "id": 327666170, "lat": 42.2608863, "lon": -71.1077463}, {"type": "node", "id": 327666424, "lat": 42.3132962, "lon": -71.0084979}, {"type": "node", "id": 327666426, "lat": 42.3205683, "lon": -71.006901}, {"type": "node", "id": 327666639, "lat": 42.3133571, "lon": -71.0122752}, {"type": "node", "id": 327666826, "lat": 42.2721571, "lon": -71.1625085}, {"type": "node", "id": 327666843, "lat": 42.3097545, "lon": -71.0144377}, {"type": "node", "id": 327666854, "lat": 42.3120835, "lon": -71.0163152}, {"type": "node", "id": 327666932, "lat": 42.3181192, "lon": -71.0096977}, {"type": "node", "id": 327667071, "lat": 42.3143001, "lon": -71.007214}, {"type": "node", "id": 327667078, "lat": 42.3205934, "lon": -70.9994127}, {"type": "node", "id": 327667451, "lat": 42.3103395, "lon": -71.0137228}, {"type": "node", "id": 327667619, "lat": 42.3099524, "lon": -71.0154646}, {"type": "node", "id": 327667729, "lat": 42.3108997, "lon": -71.0139336}, {"type": "node", "id": 327667792, "lat": 42.3194144, "lon": -71.0034329}, {"type": "node", "id": 327668028, "lat": 42.3103066, "lon": -71.0107451}, {"type": "node", "id": 327668162, "lat": 42.3143178, "lon": -71.0120437}, {"type": "node", "id": 327668744, "lat": 42.2610586, "lon": -71.1081122}, {"type": "node", "id": 327668895, "lat": 42.3332014, "lon": -71.0986267}, {"type": "node", "id": 327669217, "lat": 42.3130335, "lon": -71.0170905}, {"type": "node", "id": 327669512, "lat": 42.3194364, "lon": -70.9996269}, {"type": "node", "id": 327669748, "lat": 42.3302565, "lon": -71.0916281}, {"type": "node", "id": 327669825, "lat": 42.3089234, "lon": -71.0118184}, {"type": "node", "id": 327669879, "lat": 42.3140464, "lon": -71.0131763}, {"type": "node", "id": 327670156, "lat": 42.3135495, "lon": -71.012773}, {"type": "node", "id": 327670313, "lat": 42.311684, "lon": -71.0160431}, {"type": "node", "id": 327670326, "lat": 42.3164811, "lon": -71.0111814}, {"type": "node", "id": 327670384, "lat": 42.3094085, "lon": -71.0134489}, {"type": "node", "id": 327670450, "lat": 42.3118071, "lon": -71.0096486}, {"type": "node", "id": 327670716, "lat": 42.3168873, "lon": -71.0057827}, {"type": "node", "id": 327670725, "lat": 42.3159048, "lon": -71.0119748}, {"type": "node", "id": 327670955, "lat": 42.3113482, "lon": -71.0102329}, {"type": "node", "id": 327671173, "lat": 42.3130945, "lon": -71.011876}, {"type": "node", "id": 327671280, "lat": 42.2610208, "lon": -71.1054356}, {"type": "node", "id": 327671348, "lat": 42.3114051, "lon": -71.0129099}, {"type": "node", "id": 327671384, "lat": 42.3114621, "lon": -71.0154561}, {"type": "node", "id": 327671506, "lat": 42.3145495, "lon": -71.0130629}, {"type": "node", "id": 327671595, "lat": 42.3122252, "lon": -71.0168326}, {"type": "node", "id": 327671813, "lat": 42.260857, "lon": -71.1069176}, {"type": "node", "id": 327671919, "lat": 42.3190131, "lon": -71.0002818}, {"type": "node", "id": 327672004, "lat": 42.3092353, "lon": -71.0114191}, {"type": "node", "id": 327672071, "lat": 42.3124032, "lon": -71.0114334}, {"type": "node", "id": 327672405, "lat": 42.3130484, "lon": -71.016701}, {"type": "node", "id": 327672485, "lat": 42.3121968, "lon": -71.0167225}, {"type": "node", "id": 327672672, "lat": 42.3134892, "lon": -71.0142075}, {"type": "node", "id": 327672728, "lat": 42.3137796, "lon": -71.0072116}, {"type": "node", "id": 327672755, "lat": 42.309144, "lon": -71.0114109}, {"type": "node", "id": 327672876, "lat": 42.3099758, "lon": -71.0127569}, {"type": "node", "id": 327672922, "lat": 42.3102168, "lon": -71.0151395}, {"type": "node", "id": 327673070, "lat": 42.3144142, "lon": -71.0070679}, {"type": "node", "id": 327673183, "lat": 42.3109244, "lon": -71.013929}, {"type": "node", "id": 327673552, "lat": 42.3104609, "lon": -71.010653}, {"type": "node", "id": 327673627, "lat": 42.3133768, "lon": -71.0082901}, {"type": "node", "id": 327673639, "lat": 42.3204197, "lon": -71.0071644}, {"type": "node", "id": 327673797, "lat": 42.3097326, "lon": -71.0152109}, {"type": "node", "id": 327673961, "lat": 42.3098288, "lon": -71.0145692}, {"type": "node", "id": 327674262, "lat": 42.3092568, "lon": -71.0114131}, {"type": "node", "id": 327674302, "lat": 42.3177994, "lon": -71.0098952}, {"type": "node", "id": 327674453, "lat": 42.3142656, "lon": -71.0119237}, {"type": "node", "id": 327674557, "lat": 42.310294, "lon": -71.0136225}, {"type": "node", "id": 327675363, "lat": 42.3087815, "lon": -71.0117648}, {"type": "node", "id": 327675631, "lat": 42.3196288, "lon": -71.0029047}, {"type": "node", "id": 327675667, "lat": 42.3141035, "lon": -71.0132382}, {"type": "node", "id": 327676360, "lat": 42.3121975, "lon": -71.0163715}, {"type": "node", "id": 327676576, "lat": 42.3094652, "lon": -71.0132741}, {"type": "node", "id": 327676791, "lat": 42.3120477, "lon": -71.009341}, {"type": "node", "id": 327676876, "lat": 42.3098902, "lon": -71.0126024}, {"type": "node", "id": 327677109, "lat": 42.3115588, "lon": -71.0157265}, {"type": "node", "id": 327677199, "lat": 42.3214008, "lon": -71.0024152}, {"type": "node", "id": 327677354, "lat": 42.3130897, "lon": -71.0157114}, {"type": "node", "id": 327677379, "lat": 42.3109469, "lon": -71.0132551}, {"type": "node", "id": 327677748, "lat": 42.3162343, "lon": -71.0114967}, {"type": "node", "id": 327677761, "lat": 42.3189789, "lon": -71.0090862}, {"type": "node", "id": 327677829, "lat": 42.3129689, "lon": -71.0116054}, {"type": "node", "id": 327677878, "lat": 42.3188067, "lon": -71.0093555}, {"type": "node", "id": 327678036, "lat": 42.3113131, "lon": -71.012979}, {"type": "node", "id": 327678253, "lat": 42.3156548, "lon": -71.0124431}, {"type": "node", "id": 327678288, "lat": 42.3146181, "lon": -71.0130631}, {"type": "node", "id": 327678855, "lat": 42.3091721, "lon": -71.0114133}, {"type": "node", "id": 327678856, "lat": 42.3097251, "lon": -71.0124089}, {"type": "node", "id": 327678861, "lat": 42.3189878, "lon": -71.0000487}, {"type": "node", "id": 327679115, "lat": 42.3122481, "lon": -71.0169328}, {"type": "node", "id": 327679203, "lat": 42.3172143, "lon": -71.0055374}, {"type": "node", "id": 327679647, "lat": 42.2608228, "lon": -71.1074456}, {"type": "node", "id": 327679651, "lat": 42.3135584, "lon": -71.014069}, {"type": "node", "id": 327679666, "lat": 42.313796, "lon": -71.0072172}, {"type": "node", "id": 327679800, "lat": 42.3141658, "lon": -71.0159141}, {"type": "node", "id": 327679915, "lat": 42.3122597, "lon": -71.0116795}, {"type": "node", "id": 327679930, "lat": 42.3102566, "lon": -71.0150107},